{
    "type": "FeatureCollection",
    "name": "A7",
    "crs": { "type": "name", "properties": { "name": "urn:ogc:def:crs:OGC:1.3:CRS84" } },
    "features": [
    { "type": "Feature", "properties": { "Name": "Barrington Place Apartments", "description": null }, "geometry": { "type": "Point", "coordinates": [ -81.9381819, 41.4659825 ] } },
    { "type": "Feature", "properties": { "Name": "Sturbridge Square Apartments", "description": null }, "geometry": { "type": "Point", "coordinates": [ -81.9452555, 41.4658218 ] } },
    { "type": "Feature", "properties": { "Name": "Remington Apartments", "description": null }, "geometry": { "type": "Point", "coordinates": [ -81.9280532, 41.4641563 ] } },
    { "type": "Feature", "properties": { "Name": "Westlake High School", "description": null }, "geometry": { "type": "Point", "coordinates": [ -81.9289916, 41.4606403 ] } },
    { "type": "Feature", "properties": { "Name": "Westlake Police Department", "description": null }, "geometry": { "type": "Point", "coordinates": [ -81.9233673, 41.4611227 ] } },
    { "type": "Feature", "properties": { "Name": "Lutheran Home at Concord Reserve", "description": null }, "geometry": { "type": "Point", "coordinates": [ -81.9242878, 41.4570677 ] } },
    { "type": "Feature", "properties": { "Name": "Lee Burneson Middle School", "description": null }, "geometry": { "type": "Point", "coordinates": [ -81.9247752, 41.4547027 ] } },
    { "type": "Feature", "properties": { "Name": "Rusty Barrel", "description": null }, "geometry": { "type": "Point", "coordinates": [ -81.920269, 41.450201 ] } },
    { "type": "Feature", "properties": { "Name": "United States Postal Service", "description": null }, "geometry": { "type": "Point", "coordinates": [ -81.9238888, 41.4496528 ] } },
    { "type": "Feature", "properties": { "Name": "Speedway", "description": null }, "geometry": { "type": "Point", "coordinates": [ -81.9227882, 41.4486913 ] } },
    { "type": "Feature", "properties": { "Name": "Rite Aid", "description": null }, "geometry": { "type": "Point", "coordinates": [ -81.9216459, 41.4487435 ] } },
    { "type": "Feature", "properties": { "Name": "Westlake Porter Public Library", "description": null }, "geometry": { "type": "Point", "coordinates": [ -81.924646, 41.447729 ] } },
    { "type": "Feature", "properties": { "Name": "Circle K", "description": null }, "geometry": { "type": "Point", "coordinates": [ -81.922045, 41.449435 ] } },
    { "type": "Feature", "properties": { "Name": "Skyline Music", "description": null }, "geometry": { "type": "Point", "coordinates": [ -81.9200086, 41.4508121 ] } },
    { "type": "Feature", "properties": { "Name": "Dollar Bank", "description": null }, "geometry": { "type": "Point", "coordinates": [ -81.9186089, 41.4499223 ] } },
    { "type": "Feature", "properties": { "Name": "Dover Elementary School", "description": null }, "geometry": { "type": "Point", "coordinates": [ -81.922076, 41.4544342 ] } },
    { "type": "Feature", "properties": { "Name": "Marathon Gas", "description": null }, "geometry": { "type": "Point", "coordinates": [ -81.921657, 41.449925 ] } },
    { "type": "Feature", "properties": { "Name": "Banfield Pet Hospital", "description": null }, "geometry": { "type": "Point", "coordinates": [ -81.9254847, 41.4499963 ] } },
    { "type": "Feature", "properties": { "Name": "Le Chaperon Rouge Private Elementary", "description": null }, "geometry": { "type": "Point", "coordinates": [ -81.9252513, 41.449211 ] } },
    { "type": "Feature", "properties": { "Name": "Russell Real Estate Services", "description": null }, "geometry": { "type": "Point", "coordinates": [ -81.921214, 41.449267 ] } },
    { "type": "Feature", "properties": { "Name": "Studio 6a Salon & Spa", "description": null }, "geometry": { "type": "Point", "coordinates": [ -81.9198981, 41.4493825 ] } },
    { "type": "Feature", "properties": { "Name": "Insurance Partners", "description": null }, "geometry": { "type": "Point", "coordinates": [ -81.9183644, 41.4502093 ] } },
    { "type": "Feature", "properties": { "Name": "Lynette Sciulli Day Spa and Salon", "description": null }, "geometry": { "type": "Point", "coordinates": [ -81.9196076, 41.4507954 ] } },
    { "type": "Feature", "properties": { "Name": "Westlake Reformed Church", "description": null }, "geometry": { "type": "Point", "coordinates": [ -81.923486, 41.454039 ] } },
    { "type": "Feature", "properties": { "Name": "Dover Intermediate School", "description": null }, "geometry": { "type": "Point", "coordinates": [ -81.924218, 41.4555452 ] } },
    { "type": "Feature", "properties": { "Name": "Dover Congregational United Church of Christ", "description": null }, "geometry": { "type": "Point", "coordinates": [ -81.9215673, 41.4557876 ] } },
    { "type": "Feature", "properties": { "Name": "Westlake Christian Church", "description": null }, "geometry": { "type": "Point", "coordinates": [ -81.920815, 41.45585 ] } },
    { "type": "Feature", "properties": { "Name": "Bromfield Cafe at Westlake Porter Public Library", "description": null }, "geometry": { "type": "Point", "coordinates": [ -81.924065, 41.447513 ] } },
    { "type": "Feature", "properties": { "Name": "The Hearth Shop", "description": null }, "geometry": { "type": "Point", "coordinates": [ -81.9235521, 41.4485719 ] } },
    { "type": "Feature", "properties": { "Name": "Jenkins Funeral Chapel", "description": null }, "geometry": { "type": "Point", "coordinates": [ -81.9226743, 41.446125 ] } },
    { "type": "Feature", "properties": { "Name": "Brighton Gardens of Westlake", "description": null }, "geometry": { "type": "Point", "coordinates": [ -81.9298991, 41.4450839 ] } },
    { "type": "Feature", "properties": { "Name": "Hail Mary's Food And Drink", "description": null }, "geometry": { "type": "Point", "coordinates": [ -81.9302289, 41.4461782 ] } },
    { "type": "Feature", "properties": { "Name": "The Weston House", "description": null }, "geometry": { "type": "Point", "coordinates": [ -81.9318747, 41.445034 ] } },
    { "type": "Feature", "properties": { "Name": "Westshore Family Dental", "description": null }, "geometry": { "type": "Point", "coordinates": [ -81.9331348, 41.4446238 ] } },
    { "type": "Feature", "properties": { "Name": "Westlake United Methodist Church", "description": null }, "geometry": { "type": "Point", "coordinates": [ -81.9288511, 41.4474449 ] } },
    { "type": "Feature", "properties": { "Name": "Centre of Attention", "description": null }, "geometry": { "type": "Point", "coordinates": [ -81.9156895, 41.4509042 ] } },
    { "type": "Feature", "properties": { "Name": "Sharak Surfaces, Llc", "description": null }, "geometry": { "type": "Point", "coordinates": [ -81.9143684, 41.4491215 ] } },
    { "type": "Feature", "properties": { "Name": "Yards Done Right LLC", "description": null }, "geometry": { "type": "Point", "coordinates": [ -81.913197, 41.448135 ] } },
    { "type": "Feature", "properties": { "Name": "Chelsea's Consignments", "description": null }, "geometry": { "type": "Point", "coordinates": [ -81.9143263, 41.4515796 ] } },
    { "type": "Feature", "properties": { "Name": "Rimi's - Indian Bakers n Grocers & Gifts", "description": null }, "geometry": { "type": "Point", "coordinates": [ -81.9145067, 41.4511104 ] } },
    { "type": "Feature", "properties": { "Name": "Houlihan's of Cleveland Corporation", "description": null }, "geometry": { "type": "Point", "coordinates": [ -81.9129603, 41.451683 ] } },
    { "type": "Feature", "properties": { "Name": "The Cleaning Authority - Cleveland", "description": null }, "geometry": { "type": "Point", "coordinates": [ -81.9128983, 41.4529563 ] } },
    { "type": "Feature", "properties": { "Name": "Time Warp Bar", "description": null }, "geometry": { "type": "Point", "coordinates": [ -81.9113873, 41.4524298 ] } },
    { "type": "Feature", "properties": { "Name": "Vicki's Diner & Deli", "description": null }, "geometry": { "type": "Point", "coordinates": [ -81.9096341, 41.4532742 ] } },
    { "type": "Feature", "properties": { "Name": "Center West Animal Hospital", "description": null }, "geometry": { "type": "Point", "coordinates": [ -81.9090385, 41.4542715 ] } },
    { "type": "Feature", "properties": { "Name": "Mc Gorray Hanna Funeral Home", "description": null }, "geometry": { "type": "Point", "coordinates": [ -81.9040736, 41.4558508 ] } },
    { "type": "Feature", "properties": { "Name": "Westlake Dental Associates", "description": null }, "geometry": { "type": "Point", "coordinates": [ -81.9033863, 41.4552612 ] } },
    { "type": "Feature", "properties": { "Name": "Westlake Seventh-day Adventist Church", "description": null }, "geometry": { "type": "Point", "coordinates": [ -81.901595, 41.4540471 ] } },
    { "type": "Feature", "properties": { "Name": "The Church of Jesus Christ of Latter-day Saints", "description": null }, "geometry": { "type": "Point", "coordinates": [ -81.8984582, 41.4500692 ] } },
    { "type": "Feature", "properties": { "Name": "Ohio Cleveland Mission Office", "description": null }, "geometry": { "type": "Point", "coordinates": [ -81.8985053, 41.4493775 ] } },
    { "type": "Feature", "properties": { "Name": "Harry Fisher Associates Inc", "description": null }, "geometry": { "type": "Point", "coordinates": [ -81.9134849, 41.4526089 ] } },
    { "type": "Feature", "properties": { "Name": "Stick To Your Buns Bakery", "description": null }, "geometry": { "type": "Point", "coordinates": [ -81.9130852, 41.452122 ] } },
    { "type": "Feature", "properties": { "Name": "Griswold Home Care", "description": null }, "geometry": { "type": "Point", "coordinates": [ -81.91172, 41.453298 ] } },
    { "type": "Feature", "properties": { "Name": "Tracy Vedda Studio of Dance", "description": null }, "geometry": { "type": "Point", "coordinates": [ -81.9092834, 41.4537547 ] } },
    { "type": "Feature", "properties": { "Name": "Issam Nemeh MD Inc", "description": null }, "geometry": { "type": "Point", "coordinates": [ -81.908933, 41.453407 ] } },
    { "type": "Feature", "properties": { "Name": "Montessori Children's School", "description": null }, "geometry": { "type": "Point", "coordinates": [ -81.9360229, 41.4526341 ] } },
    { "type": "Feature", "properties": { "Name": "Westlake City Sch Attendance", "description": null }, "geometry": { "type": "Point", "coordinates": [ -81.941263, 41.45697 ] } },
    { "type": "Feature", "properties": { "Name": "St Ladislas Parish", "description": null }, "geometry": { "type": "Point", "coordinates": [ -81.9448835, 41.4545923 ] } },
    { "type": "Feature", "properties": { "Name": "Westlake Bible Fellowship", "description": null }, "geometry": { "type": "Point", "coordinates": [ -81.932103, 41.456437 ] } },
    { "type": "Feature", "properties": { "Name": "Bassett Elementary School", "description": null }, "geometry": { "type": "Point", "coordinates": [ -81.94266, 41.4564178 ] } },
    { "type": "Feature", "properties": { "Name": "Ideal Home Health", "description": null }, "geometry": { "type": "Point", "coordinates": [ -81.9473055, 41.4559969 ] } },
    { "type": "Feature", "properties": { "Name": "Charles Schwab", "description": null }, "geometry": { "type": "Point", "coordinates": [ -81.9479621, 41.4560744 ] } },
    { "type": "Feature", "properties": { "Name": "Devon Oaks Assisted Living Community", "description": null }, "geometry": { "type": "Point", "coordinates": [ -81.948008, 41.45445 ] } },
    { "type": "Feature", "properties": { "Name": "3 Palms Crocker Park", "description": null }, "geometry": { "type": "Point", "coordinates": [ -81.951285, 41.4563058 ] } },
    { "type": "Feature", "properties": { "Name": "Trader Joe's", "description": null }, "geometry": { "type": "Point", "coordinates": [ -81.9512978, 41.4567923 ] } },
    { "type": "Feature", "properties": { "Name": "Crocker Park", "description": null }, "geometry": { "type": "Point", "coordinates": [ -81.9522405, 41.457322 ] } },
    { "type": "Feature", "properties": { "Name": "lululemon", "description": null }, "geometry": { "type": "Point", "coordinates": [ -81.9514354, 41.4572264 ] } },
    { "type": "Feature", "properties": { "Name": "Soma", "description": null }, "geometry": { "type": "Point", "coordinates": [ -81.9515256, 41.4580518 ] } },
    { "type": "Feature", "properties": { "Name": "Talbots", "description": null }, "geometry": { "type": "Point", "coordinates": [ -81.952196, 41.458266 ] } },
    { "type": "Feature", "properties": { "Name": "Ann Taylor", "description": null }, "geometry": { "type": "Point", "coordinates": [ -81.9516114, 41.4583716 ] } },
    { "type": "Feature", "properties": { "Name": "First Watch - Crocker Park", "description": null }, "geometry": { "type": "Point", "coordinates": [ -81.951046, 41.457634 ] } },
    { "type": "Feature", "properties": { "Name": "LA Fitness", "description": null }, "geometry": { "type": "Point", "coordinates": [ -81.950371, 41.457133 ] } },
    { "type": "Feature", "properties": { "Name": "Express", "description": null }, "geometry": { "type": "Point", "coordinates": [ -81.9523257, 41.4588386 ] } },
    { "type": "Feature", "properties": { "Name": "Victoria's Secret & PINK", "description": null }, "geometry": { "type": "Point", "coordinates": [ -81.9516674, 41.4587699 ] } },
    { "type": "Feature", "properties": { "Name": "DICK'S Sporting Goods", "description": null }, "geometry": { "type": "Point", "coordinates": [ -81.9544192, 41.4592792 ] } },
    { "type": "Feature", "properties": { "Name": "DSW Designer Shoe Warehouse", "description": null }, "geometry": { "type": "Point", "coordinates": [ -81.953556, 41.4590174 ] } },
    { "type": "Feature", "properties": { "Name": "Apple Crocker Park", "description": null }, "geometry": { "type": "Point", "coordinates": [ -81.9531299, 41.4591015 ] } },
    { "type": "Feature", "properties": { "Name": "Huntington Bank", "description": null }, "geometry": { "type": "Point", "coordinates": [ -81.9488878, 41.4594543 ] } },
    { "type": "Feature", "properties": { "Name": "Aladdin's Eatery Westlake", "description": null }, "geometry": { "type": "Point", "coordinates": [ -81.950945, 41.45942 ] } },
    { "type": "Feature", "properties": { "Name": "MAC Cosmetics", "description": null }, "geometry": { "type": "Point", "coordinates": [ -81.953374, 41.4597504 ] } },
    { "type": "Feature", "properties": { "Name": "BRIO", "description": null }, "geometry": { "type": "Point", "coordinates": [ -81.9524793, 41.4599017 ] } },
    { "type": "Feature", "properties": { "Name": "The Cheesecake Factory", "description": null }, "geometry": { "type": "Point", "coordinates": [ -81.95088, 41.4601318 ] } },
    { "type": "Feature", "properties": { "Name": "Rosewood Grill Westlake", "description": null }, "geometry": { "type": "Point", "coordinates": [ -81.949171, 41.460471 ] } },
    { "type": "Feature", "properties": { "Name": "Urban Outfitters", "description": null }, "geometry": { "type": "Point", "coordinates": [ -81.951946, 41.460229 ] } },
    { "type": "Feature", "properties": { "Name": "B Spot Crocker Park", "description": null }, "geometry": { "type": "Point", "coordinates": [ -81.9524436, 41.4603479 ] } },
    { "type": "Feature", "properties": { "Name": "PNC Bank", "description": null }, "geometry": { "type": "Point", "coordinates": [ -81.949728, 41.461437 ] } },
    { "type": "Feature", "properties": { "Name": "Barnes & Noble", "description": null }, "geometry": { "type": "Point", "coordinates": [ -81.9511801, 41.4613826 ] } },
    { "type": "Feature", "properties": { "Name": "Yard House", "description": null }, "geometry": { "type": "Point", "coordinates": [ -81.9515283, 41.4612238 ] } },
    { "type": "Feature", "properties": { "Name": "Regal Cinemas Crocker Park 16 & IMAX", "description": null }, "geometry": { "type": "Point", "coordinates": [ -81.952826, 41.4609189 ] } },
    { "type": "Feature", "properties": { "Name": "Market District Supermarket", "description": null }, "geometry": { "type": "Point", "coordinates": [ -81.9555056, 41.4615894 ] } },
    { "type": "Feature", "properties": { "Name": "Nordstrom Rack Crocker Park", "description": null }, "geometry": { "type": "Point", "coordinates": [ -81.952348, 41.4614928 ] } },
    { "type": "Feature", "properties": { "Name": "Promenade At Crocker Park", "description": null }, "geometry": { "type": "Point", "coordinates": [ -81.9549128, 41.4620017 ] } },
    { "type": "Feature", "properties": { "Name": "Bed Bath & Beyond", "description": null }, "geometry": { "type": "Point", "coordinates": [ -81.9526203, 41.4620427 ] } },
    { "type": "Feature", "properties": { "Name": "Carhartt", "description": null }, "geometry": { "type": "Point", "coordinates": [ -81.9526781, 41.4623913 ] } },
    { "type": "Feature", "properties": { "Name": "Bonefish Grill", "description": null }, "geometry": { "type": "Point", "coordinates": [ -81.9513079, 41.4624403 ] } },
    { "type": "Feature", "properties": { "Name": "Pearson Professional Center", "description": null }, "geometry": { "type": "Point", "coordinates": [ -81.9495431, 41.4620156 ] } },
    { "type": "Feature", "properties": { "Name": "The Belvedere of Westlake", "description": null }, "geometry": { "type": "Point", "coordinates": [ -81.9482868, 41.462293 ] } },
    { "type": "Feature", "properties": { "Name": "TGI Fridays", "description": null }, "geometry": { "type": "Point", "coordinates": [ -81.9540448, 41.4627766 ] } },
    { "type": "Feature", "properties": { "Name": "Robeks Fresh Juices & Smoothies", "description": null }, "geometry": { "type": "Point", "coordinates": [ -81.956153, 41.462247 ] } },
    { "type": "Feature", "properties": { "Name": "Five Guys", "description": null }, "geometry": { "type": "Point", "coordinates": [ -81.9557304, 41.4622652 ] } },
    { "type": "Feature", "properties": { "Name": "U.S. Bank Branch", "description": null }, "geometry": { "type": "Point", "coordinates": [ -81.9520937, 41.4631288 ] } },
    { "type": "Feature", "properties": { "Name": "Clarity 2 Prosperity", "description": null }, "geometry": { "type": "Point", "coordinates": [ -81.957124, 41.462925 ] } },
    { "type": "Feature", "properties": { "Name": "Fifth Third Bank & ATM", "description": null }, "geometry": { "type": "Point", "coordinates": [ -81.9580225, 41.4625978 ] } },
    { "type": "Feature", "properties": { "Name": "The UPS Store", "description": null }, "geometry": { "type": "Point", "coordinates": [ -81.958846, 41.4623242 ] } },
    { "type": "Feature", "properties": { "Name": "Westlake Nutrition", "description": null }, "geometry": { "type": "Point", "coordinates": [ -81.9592765, 41.4621755 ] } },
    { "type": "Feature", "properties": { "Name": "Jersey Mike's Subs", "description": null }, "geometry": { "type": "Point", "coordinates": [ -81.959593, 41.46192 ] } },
    { "type": "Feature", "properties": { "Name": "ALDI", "description": null }, "geometry": { "type": "Point", "coordinates": [ -81.9599269, 41.461885 ] } },
    { "type": "Feature", "properties": { "Name": "Cabin Club", "description": null }, "geometry": { "type": "Point", "coordinates": [ -81.9588245, 41.4614231 ] } },
    { "type": "Feature", "properties": { "Name": "Savvy Silver Gold & Diamond Exchange", "description": null }, "geometry": { "type": "Point", "coordinates": [ -81.959685, 41.461379 ] } },
    { "type": "Feature", "properties": { "Name": "CVS", "description": null }, "geometry": { "type": "Point", "coordinates": [ -81.9601463, 41.4607767 ] } },
    { "type": "Feature", "properties": { "Name": "Speedway", "description": null }, "geometry": { "type": "Point", "coordinates": [ -81.9611537, 41.4603082 ] } },
    { "type": "Feature", "properties": { "Name": "BP", "description": null }, "geometry": { "type": "Point", "coordinates": [ -81.961197, 41.461208 ] } },
    { "type": "Feature", "properties": { "Name": "ATM (BP Connect)", "description": null }, "geometry": { "type": "Point", "coordinates": [ -81.9611953, 41.4615022 ] } },
    { "type": "Feature", "properties": { "Name": "McDonald's", "description": null }, "geometry": { "type": "Point", "coordinates": [ -81.9539268, 41.4637572 ] } },
    { "type": "Feature", "properties": { "Name": "ATM (Key Bank)", "description": null }, "geometry": { "type": "Point", "coordinates": [ -81.9515763, 41.464146 ] } },
    { "type": "Feature", "properties": { "Name": "Marc's", "description": null }, "geometry": { "type": "Point", "coordinates": [ -81.953724, 41.464486 ] } },
    { "type": "Feature", "properties": { "Name": "Wendy's", "description": null }, "geometry": { "type": "Point", "coordinates": [ -81.9505556, 41.4643419 ] } },
    { "type": "Feature", "properties": { "Name": "Cafe Tandoor", "description": null }, "geometry": { "type": "Point", "coordinates": [ -81.9536932, 41.4651277 ] } },
    { "type": "Feature", "properties": { "Name": "West Bay Plaza", "description": null }, "geometry": { "type": "Point", "coordinates": [ -81.9525539, 41.464732 ] } },
    { "type": "Feature", "properties": { "Name": "Chase Bank", "description": null }, "geometry": { "type": "Point", "coordinates": [ -81.94884, 41.464426 ] } },
    { "type": "Feature", "properties": { "Name": "Pet Supplies Plus", "description": null }, "geometry": { "type": "Point", "coordinates": [ -81.9517207, 41.4656338 ] } },
    { "type": "Feature", "properties": { "Name": "Realty Trust Services", "description": null }, "geometry": { "type": "Point", "coordinates": [ -81.947557, 41.464508 ] } },
    { "type": "Feature", "properties": { "Name": "Westfield Apartments", "description": null }, "geometry": { "type": "Point", "coordinates": [ -81.9430187, 41.4659485 ] } },
    { "type": "Feature", "properties": { "Name": "Hunter's Chase Apartments", "description": null }, "geometry": { "type": "Point", "coordinates": [ -81.9408712, 41.4663143 ] } },
    { "type": "Feature", "properties": { "Name": "Crown Jewel Limousine LLC", "description": null }, "geometry": { "type": "Point", "coordinates": [ -81.942815, 41.465696 ] } },
    { "type": "Feature", "properties": { "Name": "Modern Concepts Inc", "description": null }, "geometry": { "type": "Point", "coordinates": [ -81.947659, 41.464687 ] } },
    { "type": "Feature", "properties": { "Name": "Hampton Inn Cleveland-Westlake", "description": null }, "geometry": { "type": "Point", "coordinates": [ -81.9491498, 41.465312 ] } },
    { "type": "Feature", "properties": { "Name": "Bob Evans", "description": null }, "geometry": { "type": "Point", "coordinates": [ -81.9497768, 41.4644295 ] } },
    { "type": "Feature", "properties": { "Name": "Jimmy John's", "description": null }, "geometry": { "type": "Point", "coordinates": [ -81.9517448, 41.4647917 ] } },
    { "type": "Feature", "properties": { "Name": "Arashi Japan", "description": null }, "geometry": { "type": "Point", "coordinates": [ -81.9517405, 41.4646058 ] } },
    { "type": "Feature", "properties": { "Name": "Handywoven Wearables", "description": null }, "geometry": { "type": "Point", "coordinates": [ -81.948294, 41.465441 ] } },
    { "type": "Feature", "properties": { "Name": "Canterbury Creek Gardens - Westlake", "description": null }, "geometry": { "type": "Point", "coordinates": [ -81.9112716, 41.4679534 ] } },
    { "type": "Feature", "properties": { "Name": "Original Sewing And Quilt Expo", "description": null }, "geometry": { "type": "Point", "coordinates": [ -81.9105431, 41.4649447 ] } },
    { "type": "Feature", "properties": { "Name": "D'Italia Foods", "description": null }, "geometry": { "type": "Point", "coordinates": [ -81.9112434, 41.4685803 ] } },
    { "type": "Feature", "properties": { "Name": "Jet's Pizza", "description": null }, "geometry": { "type": "Point", "coordinates": [ -81.9068834, 41.4684803 ] } },
    { "type": "Feature", "properties": { "Name": "The UPS Store", "description": null }, "geometry": { "type": "Point", "coordinates": [ -81.9063876, 41.4684374 ] } },
    { "type": "Feature", "properties": { "Name": "Fresenius Kidney Care Ohio Renal Care Group Westlake", "description": null }, "geometry": { "type": "Point", "coordinates": [ -81.9089418, 41.4703971 ] } },
    { "type": "Feature", "properties": { "Name": "Kleinhenz Jewelers", "description": null }, "geometry": { "type": "Point", "coordinates": [ -81.9071018, 41.4690078 ] } },
    { "type": "Feature", "properties": { "Name": "Domino's Pizza", "description": null }, "geometry": { "type": "Point", "coordinates": [ -81.9085273, 41.4687026 ] } },
    { "type": "Feature", "properties": { "Name": "Panera Bread", "description": null }, "geometry": { "type": "Point", "coordinates": [ -81.909276, 41.468284 ] } },
    { "type": "Feature", "properties": { "Name": "LaCentre Conference & Banquet Facility", "description": null }, "geometry": { "type": "Point", "coordinates": [ -81.9043129, 41.4690023 ] } },
    { "type": "Feature", "properties": { "Name": "La Centre Catering", "description": null }, "geometry": { "type": "Point", "coordinates": [ -81.9044495, 41.4693256 ] } },
    { "type": "Feature", "properties": { "Name": "Houlihan's", "description": null }, "geometry": { "type": "Point", "coordinates": [ -81.90307, 41.4691692 ] } },
    { "type": "Feature", "properties": { "Name": "Winfield Commons Apartments", "description": null }, "geometry": { "type": "Point", "coordinates": [ -81.9055158, 41.4702891 ] } },
    { "type": "Feature", "properties": { "Name": "McDonald's", "description": null }, "geometry": { "type": "Point", "coordinates": [ -81.9039197, 41.4704913 ] } },
    { "type": "Feature", "properties": { "Name": "Take 5 Oil Change", "description": null }, "geometry": { "type": "Point", "coordinates": [ -81.9020284, 41.4695879 ] } },
    { "type": "Feature", "properties": { "Name": "Westshore Montessori", "description": null }, "geometry": { "type": "Point", "coordinates": [ -81.914133, 41.4690692 ] } },
    { "type": "Feature", "properties": { "Name": "Sales Concepts, Inc.", "description": null }, "geometry": { "type": "Point", "coordinates": [ -81.914754, 41.468998 ] } },
    { "type": "Feature", "properties": { "Name": "Earth To You", "description": null }, "geometry": { "type": "Point", "coordinates": [ -81.916162, 41.469079 ] } },
    { "type": "Feature", "properties": { "Name": "Westlake Montessori School", "description": null }, "geometry": { "type": "Point", "coordinates": [ -81.9172885, 41.4684373 ] } },
    { "type": "Feature", "properties": { "Name": "Berry-McGreevey and Donald Martens and Sons Funeral Homes and Cremation Service", "description": null }, "geometry": { "type": "Point", "coordinates": [ -81.9165973, 41.4676823 ] } },
    { "type": "Feature", "properties": { "Name": "Silver Fox Florist", "description": null }, "geometry": { "type": "Point", "coordinates": [ -81.9172789, 41.4676374 ] } },
    { "type": "Feature", "properties": { "Name": "Jefferson Square Shopping Center", "description": null }, "geometry": { "type": "Point", "coordinates": [ -81.9181407, 41.4674899 ] } },
    { "type": "Feature", "properties": { "Name": "Rad Air Complete Car Care and Tire Centers", "description": null }, "geometry": { "type": "Point", "coordinates": [ -81.9197616, 41.4671357 ] } },
    { "type": "Feature", "properties": { "Name": "Sunoco Gas Station", "description": null }, "geometry": { "type": "Point", "coordinates": [ -81.9212103, 41.4671472 ] } },
    { "type": "Feature", "properties": { "Name": "E&H Ace Hardware", "description": null }, "geometry": { "type": "Point", "coordinates": [ -81.9220608, 41.4665509 ] } },
    { "type": "Feature", "properties": { "Name": "Sherwin-Williams Paint Store", "description": null }, "geometry": { "type": "Point", "coordinates": [ -81.9232258, 41.4662998 ] } },
    { "type": "Feature", "properties": { "Name": "Village in the Park Apartments", "description": null }, "geometry": { "type": "Point", "coordinates": [ -81.924527, 41.465056 ] } },
    { "type": "Feature", "properties": { "Name": "Westlake Indoor Self Storage", "description": null }, "geometry": { "type": "Point", "coordinates": [ -81.9229887, 41.4675817 ] } },
    { "type": "Feature", "properties": { "Name": "Dover Gardens Tavern", "description": null }, "geometry": { "type": "Point", "coordinates": [ -81.92452, 41.467028 ] } },
    { "type": "Feature", "properties": { "Name": "Conrad's Tire Express & Total Car Care", "description": null }, "geometry": { "type": "Point", "coordinates": [ -81.9211095, 41.4680558 ] } },
    { "type": "Feature", "properties": { "Name": "Detroit Dover Animal Hospital", "description": null }, "geometry": { "type": "Point", "coordinates": [ -81.9237179, 41.4672785 ] } },
    { "type": "Feature", "properties": { "Name": "Discount Drug Mart", "description": null }, "geometry": { "type": "Point", "coordinates": [ -81.9227049, 41.4675318 ] } },
    { "type": "Feature", "properties": { "Name": "Bee Clean", "description": null }, "geometry": { "type": "Point", "coordinates": [ -81.9209394, 41.4677033 ] } },
    { "type": "Feature", "properties": { "Name": "Convenient Food Mart", "description": null }, "geometry": { "type": "Point", "coordinates": [ -81.9203225, 41.4678278 ] } },
    { "type": "Feature", "properties": { "Name": "Ron Cillian - State Farm Insurance Agent", "description": null }, "geometry": { "type": "Point", "coordinates": [ -81.9200919, 41.4678505 ] } },
    { "type": "Feature", "properties": { "Name": "Actel", "description": null }, "geometry": { "type": "Point", "coordinates": [ -81.920188, 41.4679425 ] } },
    { "type": "Feature", "properties": { "Name": "Heights Driving School Inc", "description": null }, "geometry": { "type": "Point", "coordinates": [ -81.9203879, 41.4679566 ] } },
    { "type": "Feature", "properties": { "Name": "St John Physical", "description": null }, "geometry": { "type": "Point", "coordinates": [ -81.9182208, 41.4681886 ] } },
    { "type": "Feature", "properties": { "Name": "Action vacuum", "description": null }, "geometry": { "type": "Point", "coordinates": [ -81.9170552, 41.4676482 ] } },
    { "type": "Feature", "properties": { "Name": "Cardinal Credit Union - Westlake Branch (Closing May 28, 2019)", "description": null }, "geometry": { "type": "Point", "coordinates": [ -81.9190244, 41.4672177 ] } },
    { "type": "Feature", "properties": { "Name": "Mogo Auto Service Center", "description": null }, "geometry": { "type": "Point", "coordinates": [ -81.922608, 41.466638 ] } },
    { "type": "Feature", "properties": { "Name": "Torton Center", "description": null }, "geometry": { "type": "Point", "coordinates": [ -81.9229548, 41.4664346 ] } },
    { "type": "Feature", "properties": { "Name": "La Campagna", "description": null }, "geometry": { "type": "Point", "coordinates": [ -81.9235793, 41.4664368 ] } },
    { "type": "Feature", "properties": { "Name": "Gray's Barber Shop", "description": null }, "geometry": { "type": "Point", "coordinates": [ -81.9236633, 41.4665146 ] } },
    { "type": "Feature", "properties": { "Name": "Detroit Dover Laundromat", "description": null }, "geometry": { "type": "Point", "coordinates": [ -81.9230717, 41.466552 ] } },
    { "type": "Feature", "properties": { "Name": "Mr. Hero", "description": null }, "geometry": { "type": "Point", "coordinates": [ -81.9228601, 41.4667485 ] } },
    { "type": "Feature", "properties": { "Name": "Papa John's Pizza", "description": null }, "geometry": { "type": "Point", "coordinates": [ -81.9229811, 41.4666927 ] } },
    { "type": "Feature", "properties": { "Name": "U-Haul Neighborhood Dealer", "description": null }, "geometry": { "type": "Point", "coordinates": [ -81.92242, 41.467333 ] } },
    { "type": "Feature", "properties": { "Name": "Sangria Y Tapas", "description": null }, "geometry": { "type": "Point", "coordinates": [ -81.9217946, 41.467554 ] } },
    { "type": "Feature", "properties": { "Name": "Western Union", "description": null }, "geometry": { "type": "Point", "coordinates": [ -81.9227173, 41.4676181 ] } },
    { "type": "Feature", "properties": { "Name": "WESTSIDE DISCOUNT MUFFLER & BRAKE", "description": null }, "geometry": { "type": "Point", "coordinates": [ -81.9226301, 41.4667039 ] } },
    { "type": "Feature", "properties": { "Name": "Leneghan Academy of Irish Dance", "description": null }, "geometry": { "type": "Point", "coordinates": [ -81.923105, 41.466457 ] } },
    { "type": "Feature", "properties": { "Name": "Cantrell's Grooming", "description": null }, "geometry": { "type": "Point", "coordinates": [ -81.923344, 41.466476 ] } },
    { "type": "Feature", "properties": { "Name": "No 1 Chinese Restaurant", "description": null }, "geometry": { "type": "Point", "coordinates": [ -81.9236206, 41.4664848 ] } },
    { "type": "Feature", "properties": { "Name": "Stifel", "description": null }, "geometry": { "type": "Point", "coordinates": [ -81.9252, 41.4672288 ] } },
    { "type": "Feature", "properties": { "Name": "Hub Group", "description": null }, "geometry": { "type": "Point", "coordinates": [ -81.925341, 41.467136 ] } },
    { "type": "Feature", "properties": { "Name": "Hair Design At 1340", "description": null }, "geometry": { "type": "Point", "coordinates": [ -81.911996, 41.468359 ] } },
    { "type": "Feature", "properties": { "Name": "Love Photography, Inc", "description": null }, "geometry": { "type": "Point", "coordinates": [ -81.910756, 41.468692 ] } },
    { "type": "Feature", "properties": { "Name": "Yeager Jewelers", "description": null }, "geometry": { "type": "Point", "coordinates": [ -81.9100456, 41.4683806 ] } },
    { "type": "Feature", "properties": { "Name": "Mitchell's Ice Cream (Westlake Shop)", "description": null }, "geometry": { "type": "Point", "coordinates": [ -81.9097623, 41.4681938 ] } },
    { "type": "Feature", "properties": { "Name": "Fleet Feet Sports - Westlake", "description": null }, "geometry": { "type": "Point", "coordinates": [ -81.9094679, 41.4681902 ] } },
    { "type": "Feature", "properties": { "Name": "Countertop Solutions", "description": null }, "geometry": { "type": "Point", "coordinates": [ -81.9091802, 41.4684744 ] } },
    { "type": "Feature", "properties": { "Name": "H&R Block", "description": null }, "geometry": { "type": "Point", "coordinates": [ -81.9091838, 41.468561 ] } },
    { "type": "Feature", "properties": { "Name": "RR Freestyle", "description": null }, "geometry": { "type": "Point", "coordinates": [ -81.9091578, 41.4686973 ] } },
    { "type": "Feature", "properties": { "Name": "Frames Unlimited: Westlake", "description": null }, "geometry": { "type": "Point", "coordinates": [ -81.909093, 41.468771 ] } },
    { "type": "Feature", "properties": { "Name": "Lobster Bros Seafood", "description": null }, "geometry": { "type": "Point", "coordinates": [ -81.9084226, 41.4686828 ] } },
    { "type": "Feature", "properties": { "Name": "Midwest Metals, Inc.", "description": null }, "geometry": { "type": "Point", "coordinates": [ -81.907529, 41.468846 ] } },
    { "type": "Feature", "properties": { "Name": "Pucher's Decorating Center", "description": null }, "geometry": { "type": "Point", "coordinates": [ -81.906786, 41.468641 ] } },
    { "type": "Feature", "properties": { "Name": "Top Tier Cakes", "description": null }, "geometry": { "type": "Point", "coordinates": [ -81.9070126, 41.4684681 ] } },
    { "type": "Feature", "properties": { "Name": "Accessories at Williamsburg, Left of Williamsburg Cleaners", "description": null }, "geometry": { "type": "Point", "coordinates": [ -81.90593, 41.468521 ] } },
    { "type": "Feature", "properties": { "Name": "Williamsburg Cleaners", "description": null }, "geometry": { "type": "Point", "coordinates": [ -81.9061031, 41.4683869 ] } },
    { "type": "Feature", "properties": { "Name": "Stella & Shay Beauty Bar - Westlake", "description": null }, "geometry": { "type": "Point", "coordinates": [ -81.9059572, 41.4690936 ] } },
    { "type": "Feature", "properties": { "Name": "Sylvan Learning of Westlake", "description": null }, "geometry": { "type": "Point", "coordinates": [ -81.9081902, 41.470383 ] } },
    { "type": "Feature", "properties": { "Name": "Pizzazz", "description": null }, "geometry": { "type": "Point", "coordinates": [ -81.9068041, 41.4694914 ] } },
    { "type": "Feature", "properties": { "Name": "Holiday Inn Express", "description": null }, "geometry": { "type": "Point", "coordinates": [ -81.9048789, 41.4708453 ] } },
    { "type": "Feature", "properties": { "Name": "Rae Ann Nursing Facilities", "description": null }, "geometry": { "type": "Point", "coordinates": [ -81.9354454, 41.4645494 ] } },
    { "type": "Feature", "properties": { "Name": "Westwood Meadows Apartments", "description": null }, "geometry": { "type": "Point", "coordinates": [ -81.9308062, 41.4649202 ] } },
    { "type": "Feature", "properties": { "Name": "St Paul Lutheran Church & School", "description": null }, "geometry": { "type": "Point", "coordinates": [ -81.932292, 41.4650136 ] } },
    { "type": "Feature", "properties": { "Name": "Nordson Corporation", "description": null }, "geometry": { "type": "Point", "coordinates": [ -81.9393149, 41.4684962 ] } },
    { "type": "Feature", "properties": { "Name": "Courtyard Condos", "description": null }, "geometry": { "type": "Point", "coordinates": [ -81.934389, 41.4662333 ] } },
    { "type": "Feature", "properties": { "Name": "Cahoon Nursery", "description": null }, "geometry": { "type": "Point", "coordinates": [ -81.929355, 41.466144 ] } },
    { "type": "Feature", "properties": { "Name": "Hyland Software, Inc. - Building 3", "description": null }, "geometry": { "type": "Point", "coordinates": [ -81.9336597, 41.4683732 ] } },
    { "type": "Feature", "properties": { "Name": "GLS Group", "description": null }, "geometry": { "type": "Point", "coordinates": [ -81.9312737, 41.4664467 ] } },
    { "type": "Feature", "properties": { "Name": "Gardens at Westlake Senior Living", "description": null }, "geometry": { "type": "Point", "coordinates": [ -81.9266694, 41.4654763 ] } },
    { "type": "Feature", "properties": { "Name": "Hyland Software - Building 2", "description": null }, "geometry": { "type": "Point", "coordinates": [ -81.9373546, 41.4691395 ] } },
    { "type": "Feature", "properties": { "Name": "Simplified Logistics LLC", "description": null }, "geometry": { "type": "Point", "coordinates": [ -81.940503, 41.469171 ] } },
    { "type": "Feature", "properties": { "Name": "Lake Erie Marine Trades", "description": null }, "geometry": { "type": "Point", "coordinates": [ -81.942342, 41.469079 ] } },
    { "type": "Feature", "properties": { "Name": "Mutual Capital Partners", "description": null }, "geometry": { "type": "Point", "coordinates": [ -81.9446512, 41.4685972 ] } },
    { "type": "Feature", "properties": { "Name": "HMC Group", "description": null }, "geometry": { "type": "Point", "coordinates": [ -81.9421929, 41.4698225 ] } },
    { "type": "Feature", "properties": { "Name": "EMS Payment Solutions Inc", "description": null }, "geometry": { "type": "Point", "coordinates": [ -81.9404388, 41.4693284 ] } },
    { "type": "Feature", "properties": { "Name": "Inner Bliss Yoga Studio", "description": null }, "geometry": { "type": "Point", "coordinates": [ -81.9413904, 41.4699012 ] } },
    { "type": "Feature", "properties": { "Name": "PartnerShip LLC", "description": null }, "geometry": { "type": "Point", "coordinates": [ -81.9430465, 41.4699567 ] } },
    { "type": "Feature", "properties": { "Name": "Crystal Window & Door Systems", "description": null }, "geometry": { "type": "Point", "coordinates": [ -81.945497, 41.4687809 ] } },
    { "type": "Feature", "properties": { "Name": "eProSellers", "description": null }, "geometry": { "type": "Point", "coordinates": [ -81.946677, 41.468764 ] } },
    { "type": "Feature", "properties": { "Name": "Watson Carpet Co", "description": null }, "geometry": { "type": "Point", "coordinates": [ -81.9457148, 41.4691954 ] } },
    { "type": "Feature", "properties": { "Name": "Beans Books Inc", "description": null }, "geometry": { "type": "Point", "coordinates": [ -81.9467047, 41.4691082 ] } },
    { "type": "Feature", "properties": { "Name": "Shoreworx Communications Inc.", "description": null }, "geometry": { "type": "Point", "coordinates": [ -81.945508, 41.46967 ] } },
    { "type": "Feature", "properties": { "Name": "Aero Sales", "description": null }, "geometry": { "type": "Point", "coordinates": [ -81.9466874, 41.4693678 ] } },
    { "type": "Feature", "properties": { "Name": "AlphaGraphics", "description": null }, "geometry": { "type": "Point", "coordinates": [ -81.9455919, 41.4701745 ] } },
    { "type": "Feature", "properties": { "Name": "Sibling Revelry Brewing", "description": null }, "geometry": { "type": "Point", "coordinates": [ -81.94654, 41.470115 ] } },
    { "type": "Feature", "properties": { "Name": "DataServ Integrations, LLC", "description": null }, "geometry": { "type": "Point", "coordinates": [ -81.9451602, 41.4710264 ] } },
    { "type": "Feature", "properties": { "Name": "Mars Electric Co", "description": null }, "geometry": { "type": "Point", "coordinates": [ -81.945462, 41.471051 ] } },
    { "type": "Feature", "properties": { "Name": "ProSource of Cleveland-Westlake", "description": null }, "geometry": { "type": "Point", "coordinates": [ -81.9463804, 41.4710832 ] } },
    { "type": "Feature", "properties": { "Name": "Fastener Corporation of America", "description": null }, "geometry": { "type": "Point", "coordinates": [ -81.943348, 41.4713085 ] } },
    { "type": "Feature", "properties": { "Name": "Day Star Staffing", "description": null }, "geometry": { "type": "Point", "coordinates": [ -81.9456362, 41.4718258 ] } },
    { "type": "Feature", "properties": { "Name": "The Scott Fetzer Company", "description": null }, "geometry": { "type": "Point", "coordinates": [ -81.938487, 41.471678 ] } },
    { "type": "Feature", "properties": { "Name": "Hyland Software, Inc.", "description": null }, "geometry": { "type": "Point", "coordinates": [ -81.9352381, 41.4709046 ] } },
    { "type": "Feature", "properties": { "Name": "HMS Industries", "description": null }, "geometry": { "type": "Point", "coordinates": [ -81.936094, 41.47352 ] } },
    { "type": "Feature", "properties": { "Name": "Ferralloy, Inc.", "description": null }, "geometry": { "type": "Point", "coordinates": [ -81.93656, 41.473484 ] } },
    { "type": "Feature", "properties": { "Name": "Phillips Syrup Corporation", "description": null }, "geometry": { "type": "Point", "coordinates": [ -81.937117, 41.473492 ] } },
    { "type": "Feature", "properties": { "Name": "Fight Like a GirlÂ®", "description": null }, "geometry": { "type": "Point", "coordinates": [ -81.9384904, 41.4735396 ] } },
    { "type": "Feature", "properties": { "Name": "Spooner Inc.", "description": null }, "geometry": { "type": "Point", "coordinates": [ -81.940228, 41.473531 ] } },
    { "type": "Feature", "properties": { "Name": "Applied Home Healthcare Equipment", "description": null }, "geometry": { "type": "Point", "coordinates": [ -81.941344, 41.4739999 ] } },
    { "type": "Feature", "properties": { "Name": "Spooner Medical Administrators Inc", "description": null }, "geometry": { "type": "Point", "coordinates": [ -81.93928, 41.474163 ] } },
    { "type": "Feature", "properties": { "Name": "BLR Logistics", "description": null }, "geometry": { "type": "Point", "coordinates": [ -81.944365, 41.473465 ] } },
    { "type": "Feature", "properties": { "Name": "Logan Clutch Corporation", "description": null }, "geometry": { "type": "Point", "coordinates": [ -81.9423443, 41.4748786 ] } },
    { "type": "Feature", "properties": { "Name": "Franciscus Roofing", "description": null }, "geometry": { "type": "Point", "coordinates": [ -81.945992, 41.473734 ] } },
    { "type": "Feature", "properties": { "Name": "Furrer & Associates, Inc. CPA's", "description": null }, "geometry": { "type": "Point", "coordinates": [ -81.9315627, 41.470574 ] } },
    { "type": "Feature", "properties": { "Name": "Corsaro & Associates Co., LPA", "description": null }, "geometry": { "type": "Point", "coordinates": [ -81.93056, 41.470859 ] } },
    { "type": "Feature", "properties": { "Name": "Marketing Directions Inc", "description": null }, "geometry": { "type": "Point", "coordinates": [ -81.9320739, 41.4713581 ] } },
    { "type": "Feature", "properties": { "Name": "iPlanGroup", "description": null }, "geometry": { "type": "Point", "coordinates": [ -81.930519, 41.471183 ] } },
    { "type": "Feature", "properties": { "Name": "Research Associates Inc.", "description": null }, "geometry": { "type": "Point", "coordinates": [ -81.9318495, 41.4719199 ] } },
    { "type": "Feature", "properties": { "Name": "The Travelmart, Inc.", "description": null }, "geometry": { "type": "Point", "coordinates": [ -81.9305815, 41.4713604 ] } },
    { "type": "Feature", "properties": { "Name": "Lesko Associates Inc", "description": null }, "geometry": { "type": "Point", "coordinates": [ -81.9320674, 41.4723304 ] } },
    { "type": "Feature", "properties": { "Name": "Lakewood Automation", "description": null }, "geometry": { "type": "Point", "coordinates": [ -81.9320318, 41.4728629 ] } },
    { "type": "Feature", "properties": { "Name": "Jackson, Dieken & Associates", "description": null }, "geometry": { "type": "Point", "coordinates": [ -81.9323119, 41.4732012 ] } },
    { "type": "Feature", "properties": { "Name": "Bennett Builders", "description": null }, "geometry": { "type": "Point", "coordinates": [ -81.9317024, 41.4733991 ] } },
    { "type": "Feature", "properties": { "Name": "DCT Telecom Group, Inc.", "description": null }, "geometry": { "type": "Point", "coordinates": [ -81.9339846, 41.473456 ] } },
    { "type": "Feature", "properties": { "Name": "Carnegie Management Corporation", "description": null }, "geometry": { "type": "Point", "coordinates": [ -81.9262305, 41.4670719 ] } },
    { "type": "Feature", "properties": { "Name": "Beautiful Smiles", "description": null }, "geometry": { "type": "Point", "coordinates": [ -81.926849, 41.466937 ] } },
    { "type": "Feature", "properties": { "Name": "Nationwide Insurance: Misha Ann McCallum Agency", "description": null }, "geometry": { "type": "Point", "coordinates": [ -81.927556, 41.46677 ] } },
    { "type": "Feature", "properties": { "Name": "Liller Dental Group", "description": null }, "geometry": { "type": "Point", "coordinates": [ -81.925302, 41.467212 ] } },
    { "type": "Feature", "properties": { "Name": "Rita's Electrolysis Clinic & Personal Care Center", "description": null }, "geometry": { "type": "Point", "coordinates": [ -81.9269278, 41.4669555 ] } },
    { "type": "Feature", "properties": { "Name": "EMBA Machinery, Inc.", "description": null }, "geometry": { "type": "Point", "coordinates": [ -81.945781, 41.4746512 ] } },
    { "type": "Feature", "properties": { "Name": "Party Animal, Inc.", "description": null }, "geometry": { "type": "Point", "coordinates": [ -81.9498588, 41.4739899 ] } },
    { "type": "Feature", "properties": { "Name": "UCFS - United Consumer Financial Services", "description": null }, "geometry": { "type": "Point", "coordinates": [ -81.946035, 41.475187 ] } },
    { "type": "Feature", "properties": { "Name": "Lakeshore Speech Therapy, LLC", "description": null }, "geometry": { "type": "Point", "coordinates": [ -81.9493327, 41.4756098 ] } },
    { "type": "Feature", "properties": { "Name": "INN to PETS", "description": null }, "geometry": { "type": "Point", "coordinates": [ -81.9477638, 41.475548 ] } },
    { "type": "Feature", "properties": { "Name": "U S Marble & Granite Corporation", "description": null }, "geometry": { "type": "Point", "coordinates": [ -81.949428, 41.474863 ] } },
    { "type": "Feature", "properties": { "Name": "Edelman", "description": null }, "geometry": { "type": "Point", "coordinates": [ -81.9492072, 41.4734382 ] } },
    { "type": "Feature", "properties": { "Name": "Shell", "description": null }, "geometry": { "type": "Point", "coordinates": [ -81.9503821, 41.4709451 ] } },
    { "type": "Feature", "properties": { "Name": "truenorth", "description": null }, "geometry": { "type": "Point", "coordinates": [ -81.9500125, 41.4709874 ] } },
    { "type": "Feature", "properties": { "Name": "BP", "description": null }, "geometry": { "type": "Point", "coordinates": [ -81.9502477, 41.470327 ] } },
    { "type": "Feature", "properties": { "Name": "Equity Trust Company", "description": null }, "geometry": { "type": "Point", "coordinates": [ -81.953209, 41.470109 ] } },
    { "type": "Feature", "properties": { "Name": "Sanctuary The Restaurant", "description": null }, "geometry": { "type": "Point", "coordinates": [ -81.9519804, 41.4711326 ] } },
    { "type": "Feature", "properties": { "Name": "West Bay Center", "description": null }, "geometry": { "type": "Point", "coordinates": [ -81.9263039, 41.4747251 ] } },
    { "type": "Feature", "properties": { "Name": "Westchester Townhomes Rental Homes", "description": null }, "geometry": { "type": "Point", "coordinates": [ -81.928418, 41.475814 ] } },
    { "type": "Feature", "properties": { "Name": "White Oaks Restaurant", "description": null }, "geometry": { "type": "Point", "coordinates": [ -81.9248197, 41.4755988 ] } },
    { "type": "Feature", "properties": { "Name": "Moosehead Saloon", "description": null }, "geometry": { "type": "Point", "coordinates": [ -81.9213496, 41.4768501 ] } },
    { "type": "Feature", "properties": { "Name": "Legacy Cafe and Lounge", "description": null }, "geometry": { "type": "Point", "coordinates": [ -81.9247969, 41.4772964 ] } },
    { "type": "Feature", "properties": { "Name": "Q-Lab Corporation", "description": null }, "geometry": { "type": "Point", "coordinates": [ -81.916404, 41.475984 ] } },
    { "type": "Feature", "properties": { "Name": "CVS", "description": null }, "geometry": { "type": "Point", "coordinates": [ -81.9206767, 41.4777909 ] } },
    { "type": "Feature", "properties": { "Name": "Bay Diner", "description": null }, "geometry": { "type": "Point", "coordinates": [ -81.9218828, 41.477813 ] } },
    { "type": "Feature", "properties": { "Name": "DQ \/ Orange Julius", "description": null }, "geometry": { "type": "Point", "coordinates": [ -81.9224779, 41.4785874 ] } },
    { "type": "Feature", "properties": { "Name": "Mojo's Coffee and More", "description": null }, "geometry": { "type": "Point", "coordinates": [ -81.9213776, 41.4785085 ] } },
    { "type": "Feature", "properties": { "Name": "Malley's Chocolates", "description": null }, "geometry": { "type": "Point", "coordinates": [ -81.921479, 41.479114 ] } },
    { "type": "Feature", "properties": { "Name": "United States Postal Service", "description": null }, "geometry": { "type": "Point", "coordinates": [ -81.9203845, 41.4797476 ] } },
    { "type": "Feature", "properties": { "Name": "St Raphael Catholic Church", "description": null }, "geometry": { "type": "Point", "coordinates": [ -81.9203399, 41.4808538 ] } },
    { "type": "Feature", "properties": { "Name": "PNC Bank", "description": null }, "geometry": { "type": "Point", "coordinates": [ -81.92056, 41.48339 ] } },
    { "type": "Feature", "properties": { "Name": "Heinen's Grocery Store", "description": null }, "geometry": { "type": "Point", "coordinates": [ -81.9221086, 41.4836498 ] } },
    { "type": "Feature", "properties": { "Name": "Bay Village Branch of Cuyahoga County Public Library", "description": null }, "geometry": { "type": "Point", "coordinates": [ -81.9250088, 41.4834263 ] } },
    { "type": "Feature", "properties": { "Name": "Pizza Hut", "description": null }, "geometry": { "type": "Point", "coordinates": [ -81.9211134, 41.4844738 ] } },
    { "type": "Feature", "properties": { "Name": "Huntington Bank", "description": null }, "geometry": { "type": "Point", "coordinates": [ -81.9204166, 41.4851861 ] } },
    { "type": "Feature", "properties": { "Name": "Bay Village City Hall", "description": null }, "geometry": { "type": "Point", "coordinates": [ -81.9215194, 41.4852587 ] } },
    { "type": "Feature", "properties": { "Name": "Ross Wine & Liquor", "description": null }, "geometry": { "type": "Point", "coordinates": [ -81.9226968, 41.4846395 ] } },
    { "type": "Feature", "properties": { "Name": "Bay Middle School", "description": null }, "geometry": { "type": "Point", "coordinates": [ -81.9268821, 41.4841402 ] } },
    { "type": "Feature", "properties": { "Name": "American Legion", "description": null }, "geometry": { "type": "Point", "coordinates": [ -81.9251915, 41.4765818 ] } },
    { "type": "Feature", "properties": { "Name": "Fragapane Bakeries", "description": null }, "geometry": { "type": "Point", "coordinates": [ -81.922074, 41.478173 ] } },
    { "type": "Feature", "properties": { "Name": "Superlube Complete Car Care", "description": null }, "geometry": { "type": "Point", "coordinates": [ -81.9206997, 41.4767548 ] } },
    { "type": "Feature", "properties": { "Name": "Prescription Fitness", "description": null }, "geometry": { "type": "Point", "coordinates": [ -81.9196593, 41.4780143 ] } },
    { "type": "Feature", "properties": { "Name": "Knickerbocker Apartments", "description": null }, "geometry": { "type": "Point", "coordinates": [ -81.919764, 41.478647 ] } },
    { "type": "Feature", "properties": { "Name": "Huntington Woods", "description": null }, "geometry": { "type": "Point", "coordinates": [ -81.928, 41.474579 ] } },
    { "type": "Feature", "properties": { "Name": "American Greetings Corporation", "description": null }, "geometry": { "type": "Point", "coordinates": [ -81.9508033, 41.4550643 ] } },
    { "type": "Feature", "properties": { "Name": "Veranda Bistro & Bar", "description": null }, "geometry": { "type": "Point", "coordinates": [ -81.9698005, 41.4576442 ] } },
    { "type": "Feature", "properties": { "Name": "D&J Detzel's Garage", "description": null }, "geometry": { "type": "Point", "coordinates": [ -81.9706004, 41.458005 ] } },
    { "type": "Feature", "properties": { "Name": "Ernie's Auto Body Repair", "description": null }, "geometry": { "type": "Point", "coordinates": [ -81.971219, 41.458422 ] } },
    { "type": "Feature", "properties": { "Name": "Hope Christian Church", "description": null }, "geometry": { "type": "Point", "coordinates": [ -81.9771789, 41.4534557 ] } },
    { "type": "Feature", "properties": { "Name": "Avon Import Auto Clinic", "description": null }, "geometry": { "type": "Point", "coordinates": [ -81.9712613, 41.4576988 ] } },
    { "type": "Feature", "properties": { "Name": "Busch Funeral and Crematory Services", "description": null }, "geometry": { "type": "Point", "coordinates": [ -81.969979, 41.458248 ] } },
    { "type": "Feature", "properties": { "Name": "Essig Management Co", "description": null }, "geometry": { "type": "Point", "coordinates": [ -81.967733, 41.460429 ] } },
    { "type": "Feature", "properties": { "Name": "WestBay Floor Source", "description": null }, "geometry": { "type": "Point", "coordinates": [ -81.95893, 41.460493 ] } },
    { "type": "Feature", "properties": { "Name": "Cardtronics ATM", "description": null }, "geometry": { "type": "Point", "coordinates": [ -81.96111, 41.4604863 ] } },
    { "type": "Feature", "properties": { "Name": "Access to Money", "description": null }, "geometry": { "type": "Point", "coordinates": [ -81.9593089, 41.4620314 ] } },
    { "type": "Feature", "properties": { "Name": "Pizza By Robert", "description": null }, "geometry": { "type": "Point", "coordinates": [ -81.9590432, 41.4622642 ] } },
    { "type": "Feature", "properties": { "Name": "Bank of England Mortgage", "description": null }, "geometry": { "type": "Point", "coordinates": [ -81.9569539, 41.4629444 ] } },
    { "type": "Feature", "properties": { "Name": "Massage Envy - Westlake -OH", "description": null }, "geometry": { "type": "Point", "coordinates": [ -81.95591, 41.462212 ] } },
    { "type": "Feature", "properties": { "Name": "Huntington Bank", "description": null }, "geometry": { "type": "Point", "coordinates": [ -81.9556977, 41.4617772 ] } },
    { "type": "Feature", "properties": { "Name": "Redbox", "description": null }, "geometry": { "type": "Point", "coordinates": [ -81.9553304, 41.4612136 ] } },
    { "type": "Feature", "properties": { "Name": "OfficeMax", "description": null }, "geometry": { "type": "Point", "coordinates": [ -81.954332, 41.460785 ] } },
    { "type": "Feature", "properties": { "Name": "Zoup!", "description": null }, "geometry": { "type": "Point", "coordinates": [ -81.9537993, 41.4609505 ] } },
    { "type": "Feature", "properties": { "Name": "Citizens Bank", "description": null }, "geometry": { "type": "Point", "coordinates": [ -81.9530883, 41.4611021 ] } },
    { "type": "Feature", "properties": { "Name": "New Balance Cleveland-Promenade at Crocker Park", "description": null }, "geometry": { "type": "Point", "coordinates": [ -81.9533091, 41.4610714 ] } },
    { "type": "Feature", "properties": { "Name": "Burntwood Tavern Crocker Park", "description": null }, "geometry": { "type": "Point", "coordinates": [ -81.9526726, 41.4604762 ] } },
    { "type": "Feature", "properties": { "Name": "Hyde Park Prime Steakhouse", "description": null }, "geometry": { "type": "Point", "coordinates": [ -81.9519475, 41.4604096 ] } },
    { "type": "Feature", "properties": { "Name": "Bar Louie - Crocker Park", "description": null }, "geometry": { "type": "Point", "coordinates": [ -81.9521625, 41.4605532 ] } },
    { "type": "Feature", "properties": { "Name": "Starbucks", "description": null }, "geometry": { "type": "Point", "coordinates": [ -81.95502, 41.462772 ] } },
    { "type": "Feature", "properties": { "Name": "Coinstar Exchange", "description": null }, "geometry": { "type": "Point", "coordinates": [ -81.955671, 41.462926 ] } },
    { "type": "Feature", "properties": { "Name": "First National Bank ATM", "description": null }, "geometry": { "type": "Point", "coordinates": [ -81.9532869, 41.4628647 ] } },
    { "type": "Feature", "properties": { "Name": "Cantina Laredo", "description": null }, "geometry": { "type": "Point", "coordinates": [ -81.9516094, 41.4618753 ] } },
    { "type": "Feature", "properties": { "Name": "Texas de Brazil", "description": null }, "geometry": { "type": "Point", "coordinates": [ -81.951819, 41.461293 ] } },
    { "type": "Feature", "properties": { "Name": "Promenade of Westlake", "description": null }, "geometry": { "type": "Point", "coordinates": [ -81.9548065, 41.4631286 ] } },
    { "type": "Feature", "properties": { "Name": "Tesla Destination Charger", "description": null }, "geometry": { "type": "Point", "coordinates": [ -81.951758, 41.462077 ] } },
    { "type": "Feature", "properties": { "Name": "Laura Newton Hair", "description": null }, "geometry": { "type": "Point", "coordinates": [ -81.9528576, 41.4636441 ] } },
    { "type": "Feature", "properties": { "Name": "Fidelity Investments", "description": null }, "geometry": { "type": "Point", "coordinates": [ -81.9514179, 41.4629224 ] } },
    { "type": "Feature", "properties": { "Name": "Farmers Insurance - William Allen", "description": null }, "geometry": { "type": "Point", "coordinates": [ -81.9547653, 41.4636444 ] } },
    { "type": "Feature", "properties": { "Name": "Destiny Derma Spa & Salon", "description": null }, "geometry": { "type": "Point", "coordinates": [ -81.9546168, 41.4636808 ] } },
    { "type": "Feature", "properties": { "Name": "Tech 9, Inc", "description": null }, "geometry": { "type": "Point", "coordinates": [ -81.9547563, 41.464041 ] } },
    { "type": "Feature", "properties": { "Name": "Ohio Savings Bank", "description": null }, "geometry": { "type": "Point", "coordinates": [ -81.955218, 41.463563 ] } },
    { "type": "Feature", "properties": { "Name": "Making the Moment Photography", "description": null }, "geometry": { "type": "Point", "coordinates": [ -81.9553334, 41.4640158 ] } },
    { "type": "Feature", "properties": { "Name": "Tina's Nail and Spa", "description": null }, "geometry": { "type": "Point", "coordinates": [ -81.9535617, 41.4653031 ] } },
    { "type": "Feature", "properties": { "Name": "Ulta Beauty", "description": null }, "geometry": { "type": "Point", "coordinates": [ -81.9518759, 41.4658749 ] } },
    { "type": "Feature", "properties": { "Name": "Fresh Thyme Farmers Market", "description": null }, "geometry": { "type": "Point", "coordinates": [ -81.9526159, 41.4657606 ] } },
    { "type": "Feature", "properties": { "Name": "Homesense", "description": null }, "geometry": { "type": "Point", "coordinates": [ -81.953086, 41.4657882 ] } },
    { "type": "Feature", "properties": { "Name": "Kirkland's", "description": null }, "geometry": { "type": "Point", "coordinates": [ -81.952005, 41.4657473 ] } },
    { "type": "Feature", "properties": { "Name": "WRG Services, Inc.", "description": null }, "geometry": { "type": "Point", "coordinates": [ -81.9518131, 41.4648978 ] } },
    { "type": "Feature", "properties": { "Name": "MoneyGram", "description": null }, "geometry": { "type": "Point", "coordinates": [ -81.9537164, 41.4643923 ] } },
    { "type": "Feature", "properties": { "Name": "Bath & Body Works", "description": null }, "geometry": { "type": "Point", "coordinates": [ -81.9531067, 41.4596967 ] } },
    { "type": "Feature", "properties": { "Name": "Sunglass Hut", "description": null }, "geometry": { "type": "Point", "coordinates": [ -81.9534113, 41.4591529 ] } },
    { "type": "Feature", "properties": { "Name": "Charming Charlie", "description": null }, "geometry": { "type": "Point", "coordinates": [ -81.9513845, 41.4600254 ] } },
    { "type": "Feature", "properties": { "Name": "H&M", "description": null }, "geometry": { "type": "Point", "coordinates": [ -81.952681, 41.4598716 ] } },
    { "type": "Feature", "properties": { "Name": "The Pasta Co-Op", "description": null }, "geometry": { "type": "Point", "coordinates": [ -81.951905, 41.459649 ] } },
    { "type": "Feature", "properties": { "Name": "Rocky Mountain Chocolate Factory", "description": null }, "geometry": { "type": "Point", "coordinates": [ -81.9524845, 41.4595538 ] } },
    { "type": "Feature", "properties": { "Name": "Anthropologie", "description": null }, "geometry": { "type": "Point", "coordinates": [ -81.9524112, 41.4592206 ] } },
    { "type": "Feature", "properties": { "Name": "J.Crew", "description": null }, "geometry": { "type": "Point", "coordinates": [ -81.952333, 41.458998 ] } },
    { "type": "Feature", "properties": { "Name": "Athleta", "description": null }, "geometry": { "type": "Point", "coordinates": [ -81.9518378, 41.458896 ] } },
    { "type": "Feature", "properties": { "Name": "francesca's", "description": null }, "geometry": { "type": "Point", "coordinates": [ -81.95156, 41.45821 ] } },
    { "type": "Feature", "properties": { "Name": "LOFT", "description": null }, "geometry": { "type": "Point", "coordinates": [ -81.952023, 41.458001 ] } },
    { "type": "Feature", "properties": { "Name": "Gap", "description": null }, "geometry": { "type": "Point", "coordinates": [ -81.9520489, 41.4577397 ] } },
    { "type": "Feature", "properties": { "Name": "Head Quarters Salon & Spa Aveda", "description": null }, "geometry": { "type": "Point", "coordinates": [ -81.9514525, 41.4578342 ] } },
    { "type": "Feature", "properties": { "Name": "The Szarek Team", "description": null }, "geometry": { "type": "Point", "coordinates": [ -81.9509814, 41.4592411 ] } },
    { "type": "Feature", "properties": { "Name": "Anthony Vince Nail Spa", "description": null }, "geometry": { "type": "Point", "coordinates": [ -81.9535708, 41.4597349 ] } },
    { "type": "Feature", "properties": { "Name": "Cleveland Home Title", "description": null }, "geometry": { "type": "Point", "coordinates": [ -81.949157, 41.460288 ] } },
    { "type": "Feature", "properties": { "Name": "ATM (Huntington National Bank)", "description": null }, "geometry": { "type": "Point", "coordinates": [ -81.9491754, 41.4594181 ] } },
    { "type": "Feature", "properties": { "Name": "First Federal Lakewood - Westlake - Crocker Road", "description": null }, "geometry": { "type": "Point", "coordinates": [ -81.9489386, 41.4603454 ] } },
    { "type": "Feature", "properties": { "Name": "Crocker Park Living", "description": null }, "geometry": { "type": "Point", "coordinates": [ -81.9498924, 41.4568988 ] } },
    { "type": "Feature", "properties": { "Name": "Sur La Table", "description": null }, "geometry": { "type": "Point", "coordinates": [ -81.951832, 41.457143 ] } },
    { "type": "Feature", "properties": { "Name": "AT&T Store", "description": null }, "geometry": { "type": "Point", "coordinates": [ -81.9506473, 41.457286 ] } },
    { "type": "Feature", "properties": { "Name": "AAA Travel Agency", "description": null }, "geometry": { "type": "Point", "coordinates": [ -81.9504883, 41.4573249 ] } },
    { "type": "Feature", "properties": { "Name": "Graeter's Ice Cream", "description": null }, "geometry": { "type": "Point", "coordinates": [ -81.9512538, 41.4566281 ] } },
    { "type": "Feature", "properties": { "Name": "Dani Altieri Marinucci", "description": null }, "geometry": { "type": "Point", "coordinates": [ -81.956812, 41.458552 ] } },
    { "type": "Feature", "properties": { "Name": "HS Tuning", "description": null }, "geometry": { "type": "Point", "coordinates": [ -81.955273, 41.469827 ] } },
    { "type": "Feature", "properties": { "Name": "North Ohio Gastroenterology", "description": null }, "geometry": { "type": "Point", "coordinates": [ -81.9598584, 41.470228 ] } },
    { "type": "Feature", "properties": { "Name": "Extended Stay America Hotel Cleveland - Westlake", "description": null }, "geometry": { "type": "Point", "coordinates": [ -81.9556995, 41.4711673 ] } },
    { "type": "Feature", "properties": { "Name": "DoubleTree by Hilton Hotel Cleveland - Westlake", "description": null }, "geometry": { "type": "Point", "coordinates": [ -81.9524791, 41.471266 ] } },
    { "type": "Feature", "properties": { "Name": "Holiday Inn Express & Suites Cleveland West - Westlake", "description": null }, "geometry": { "type": "Point", "coordinates": [ -81.956852, 41.471119 ] } },
    { "type": "Feature", "properties": { "Name": "DoubleTree by Hilton Hotel Cleveland - Westlake", "description": null }, "geometry": { "type": "Point", "coordinates": [ -81.9524791, 41.471266 ] } },
    { "type": "Feature", "properties": { "Name": "Red Roof Inn Cleveland - Westlake", "description": null }, "geometry": { "type": "Point", "coordinates": [ -81.9491915, 41.4700331 ] } },
    { "type": "Feature", "properties": { "Name": "Hampton Inn Cleveland-Westlake", "description": null }, "geometry": { "type": "Point", "coordinates": [ -81.9491498, 41.465312 ] } },
    { "type": "Feature", "properties": { "Name": "USG Interiors Inc", "description": null }, "geometry": { "type": "Point", "coordinates": [ -81.9532779, 41.4765286 ] } },
    { "type": "Feature", "properties": { "Name": "Ames Family Hospice House", "description": null }, "geometry": { "type": "Point", "coordinates": [ -81.9570697, 41.473348 ] } },
    { "type": "Feature", "properties": { "Name": "Westlake KinderCare", "description": null }, "geometry": { "type": "Point", "coordinates": [ -81.961284, 41.473739 ] } },
    { "type": "Feature", "properties": { "Name": "Inspection Engineering", "description": null }, "geometry": { "type": "Point", "coordinates": [ -81.961934, 41.472719 ] } },
    { "type": "Feature", "properties": { "Name": "West Shore Distributors", "description": null }, "geometry": { "type": "Point", "coordinates": [ -81.9648026, 41.4713846 ] } },
    { "type": "Feature", "properties": { "Name": "Camp Bow Wow Westlake", "description": null }, "geometry": { "type": "Point", "coordinates": [ -81.9594422, 41.4750017 ] } },
    { "type": "Feature", "properties": { "Name": "Technology Recovery Group", "description": null }, "geometry": { "type": "Point", "coordinates": [ -81.9683719, 41.474751 ] } },
    { "type": "Feature", "properties": { "Name": "Duck Brand World Headquarters", "description": null }, "geometry": { "type": "Point", "coordinates": [ -81.9720839, 41.4727825 ] } },
    { "type": "Feature", "properties": { "Name": "Sky Zone Trampoline Park", "description": null }, "geometry": { "type": "Point", "coordinates": [ -81.967703, 41.472026 ] } },
    { "type": "Feature", "properties": { "Name": "Paramount Tennis Club - Westlake", "description": null }, "geometry": { "type": "Point", "coordinates": [ -81.9671609, 41.4708267 ] } },
    { "type": "Feature", "properties": { "Name": "West Shore Distributors", "description": null }, "geometry": { "type": "Point", "coordinates": [ -81.9648026, 41.4713846 ] } },
    { "type": "Feature", "properties": { "Name": "American Plumbing", "description": null }, "geometry": { "type": "Point", "coordinates": [ -81.9585105, 41.4721501 ] } },
    { "type": "Feature", "properties": { "Name": "Star Metal Products Inc", "description": null }, "geometry": { "type": "Point", "coordinates": [ -81.9565295, 41.4700691 ] } },
    { "type": "Feature", "properties": { "Name": "Security Self Storage", "description": null }, "geometry": { "type": "Point", "coordinates": [ -81.9596371, 41.4707912 ] } },
    { "type": "Feature", "properties": { "Name": "Bradley Auto", "description": null }, "geometry": { "type": "Point", "coordinates": [ -81.959675, 41.4693309 ] } },
    { "type": "Feature", "properties": { "Name": "Tri-C Westshore Bookstore", "description": null }, "geometry": { "type": "Point", "coordinates": [ -81.9638526, 41.4699606 ] } },
    { "type": "Feature", "properties": { "Name": "Banyan Technology", "description": null }, "geometry": { "type": "Point", "coordinates": [ -81.9635644, 41.4730224 ] } },
    { "type": "Feature", "properties": { "Name": "Westlake City Services Department", "description": null }, "geometry": { "type": "Point", "coordinates": [ -81.9495112, 41.4769462 ] } },
    { "type": "Feature", "properties": { "Name": "Bay Village Services Garage", "description": null }, "geometry": { "type": "Point", "coordinates": [ -81.967112, 41.478969 ] } },
    { "type": "Feature", "properties": { "Name": "Crossings Village", "description": null }, "geometry": { "type": "Point", "coordinates": [ -81.9553374, 41.4665308 ] } },
    { "type": "Feature", "properties": { "Name": "Cleveland Clinic - Avon Hospital Emergency Department", "description": null }, "geometry": { "type": "Point", "coordinates": [ -81.9817568, 41.4685789 ] } },
    { "type": "Feature", "properties": { "Name": "Cleveland Clinic - Avon Hospital", "description": null }, "geometry": { "type": "Point", "coordinates": [ -81.9818879, 41.468939 ] } },
    { "type": "Feature", "properties": { "Name": "Mike's Tree Services Inc", "description": null }, "geometry": { "type": "Point", "coordinates": [ -81.9839034, 41.467112 ] } },
    { "type": "Feature", "properties": { "Name": "Residence Inn by Marriott Cleveland Avon at The Emerald Event Center", "description": null }, "geometry": { "type": "Point", "coordinates": [ -81.9862837, 41.4682041 ] } },
    { "type": "Feature", "properties": { "Name": "33040 Just Imagine Drive Parking", "description": null }, "geometry": { "type": "Point", "coordinates": [ -81.986894, 41.467243 ] } },
    { "type": "Feature", "properties": { "Name": "GetGo Gas Station", "description": null }, "geometry": { "type": "Point", "coordinates": [ -81.9877133, 41.4667982 ] } },
    { "type": "Feature", "properties": { "Name": "Emerald Event Center", "description": null }, "geometry": { "type": "Point", "coordinates": [ -81.9867989, 41.468551 ] } },
    { "type": "Feature", "properties": { "Name": "Jenne, Inc.", "description": null }, "geometry": { "type": "Point", "coordinates": [ -81.9908513, 41.4668201 ] } },
    { "type": "Feature", "properties": { "Name": "Petitti Garden Centers", "description": null }, "geometry": { "type": "Point", "coordinates": [ -81.9927121, 41.4663273 ] } },
    { "type": "Feature", "properties": { "Name": "ChromeDaddyO", "description": null }, "geometry": { "type": "Point", "coordinates": [ -81.992208, 41.4674693 ] } },
    { "type": "Feature", "properties": { "Name": "Lawrence Community Management Group", "description": null }, "geometry": { "type": "Point", "coordinates": [ -81.9915456, 41.467867 ] } },
    { "type": "Feature", "properties": { "Name": "Sherwin-Williams Commercial Paint Store", "description": null }, "geometry": { "type": "Point", "coordinates": [ -81.9931536, 41.4678927 ] } },
    { "type": "Feature", "properties": { "Name": "Top Gun All Stars & Training Center - Ohio", "description": null }, "geometry": { "type": "Point", "coordinates": [ -81.9928298, 41.468222 ] } },
    { "type": "Feature", "properties": { "Name": "Buckle", "description": null }, "geometry": { "type": "Point", "coordinates": [ -81.9915767, 41.4682993 ] } },
    { "type": "Feature", "properties": { "Name": "Kaydon Corporation", "description": null }, "geometry": { "type": "Point", "coordinates": [ -81.9899669, 41.4692269 ] } },
    { "type": "Feature", "properties": { "Name": "Woodman Agitator Inc", "description": null }, "geometry": { "type": "Point", "coordinates": [ -81.9931064, 41.4693204 ] } },
    { "type": "Feature", "properties": { "Name": "Freeman Equipment", "description": null }, "geometry": { "type": "Point", "coordinates": [ -81.9922247, 41.4696241 ] } },
    { "type": "Feature", "properties": { "Name": "Chu To Bu Brasa Judo Jiu Jitsu", "description": null }, "geometry": { "type": "Point", "coordinates": [ -81.9929119, 41.4697219 ] } },
    { "type": "Feature", "properties": { "Name": "Westlake Auto Body & Frame", "description": null }, "geometry": { "type": "Point", "coordinates": [ -81.9894044, 41.4706722 ] } },
    { "type": "Feature", "properties": { "Name": "Berrington Pumps", "description": null }, "geometry": { "type": "Point", "coordinates": [ -81.99317, 41.470657 ] } },
    { "type": "Feature", "properties": { "Name": "SiteOne Hardscape Center", "description": null }, "geometry": { "type": "Point", "coordinates": [ -81.992894, 41.470322 ] } },
    { "type": "Feature", "properties": { "Name": "LogiSync LLC", "description": null }, "geometry": { "type": "Point", "coordinates": [ -81.991775, 41.470738 ] } },
    { "type": "Feature", "properties": { "Name": "Dott Products", "description": null }, "geometry": { "type": "Point", "coordinates": [ -81.9916212, 41.4710373 ] } },
    { "type": "Feature", "properties": { "Name": "Moell's Auto Services", "description": null }, "geometry": { "type": "Point", "coordinates": [ -81.989912, 41.471843 ] } },
    { "type": "Feature", "properties": { "Name": "Duraclean Restoration & Cleaning Services, Inc.", "description": null }, "geometry": { "type": "Point", "coordinates": [ -81.992855, 41.471978 ] } },
    { "type": "Feature", "properties": { "Name": "Ecoverse", "description": null }, "geometry": { "type": "Point", "coordinates": [ -81.9916572, 41.4719394 ] } },
    { "type": "Feature", "properties": { "Name": "Schober Vineyards", "description": null }, "geometry": { "type": "Point", "coordinates": [ -81.9943289, 41.472653 ] } },
    { "type": "Feature", "properties": { "Name": "GK's Custom Polishing, Inc.", "description": null }, "geometry": { "type": "Point", "coordinates": [ -81.9923394, 41.4723621 ] } },
    { "type": "Feature", "properties": { "Name": "Great Lakes Computer Corporation", "description": null }, "geometry": { "type": "Point", "coordinates": [ -81.9896656, 41.4731523 ] } },
    { "type": "Feature", "properties": { "Name": "Pompeii's Plumbing & Heating", "description": null }, "geometry": { "type": "Point", "coordinates": [ -81.9905085, 41.4731849 ] } },
    { "type": "Feature", "properties": { "Name": "Cleveland Clinic - Rehabilitation Hospital Avon", "description": null }, "geometry": { "type": "Point", "coordinates": [ -81.9858124, 41.4731081 ] } },
    { "type": "Feature", "properties": { "Name": "Avon Auto Care & Repair", "description": null }, "geometry": { "type": "Point", "coordinates": [ -81.9887049, 41.4737435 ] } },
    { "type": "Feature", "properties": { "Name": "Rose Senior Living Avon", "description": null }, "geometry": { "type": "Point", "coordinates": [ -81.984117, 41.473848 ] } },
    { "type": "Feature", "properties": { "Name": "Primrose School of Avon", "description": null }, "geometry": { "type": "Point", "coordinates": [ -81.9877424, 41.4742971 ] } },
    { "type": "Feature", "properties": { "Name": "Enterprise Rent-A-Car", "description": null }, "geometry": { "type": "Point", "coordinates": [ -81.9891453, 41.4740995 ] } },
    { "type": "Feature", "properties": { "Name": "Richtech Industries", "description": null }, "geometry": { "type": "Point", "coordinates": [ -81.9917731, 41.474302 ] } },
    { "type": "Feature", "properties": { "Name": "Zephyr Solutions, Inc", "description": null }, "geometry": { "type": "Point", "coordinates": [ -81.9921721, 41.4739902 ] } },
    { "type": "Feature", "properties": { "Name": "Christian Brothers Automotive Avon", "description": null }, "geometry": { "type": "Point", "coordinates": [ -81.9892121, 41.474939 ] } },
    { "type": "Feature", "properties": { "Name": "Black Flag Athletics", "description": null }, "geometry": { "type": "Point", "coordinates": [ -81.990217, 41.474217 ] } },
    { "type": "Feature", "properties": { "Name": "The Power Gripz", "description": null }, "geometry": { "type": "Point", "coordinates": [ -81.990685, 41.474234 ] } },
    { "type": "Feature", "properties": { "Name": "Grassa's Body Repair", "description": null }, "geometry": { "type": "Point", "coordinates": [ -81.991482, 41.473168 ] } },
    { "type": "Feature", "properties": { "Name": "Connelly Landscaping", "description": null }, "geometry": { "type": "Point", "coordinates": [ -81.9988898, 41.4660922 ] } },
    { "type": "Feature", "properties": { "Name": "Retek, Inc.", "description": null }, "geometry": { "type": "Point", "coordinates": [ -81.9961703, 41.4677893 ] } },
    { "type": "Feature", "properties": { "Name": "Prayers From Maria Sunflower Field", "description": null }, "geometry": { "type": "Point", "coordinates": [ -82.0006573, 41.466713 ] } },
    { "type": "Feature", "properties": { "Name": "Suntan Supply", "description": null }, "geometry": { "type": "Point", "coordinates": [ -82.0043514, 41.468519 ] } },
    { "type": "Feature", "properties": { "Name": "Maroon Group", "description": null }, "geometry": { "type": "Point", "coordinates": [ -82.0014615, 41.4704319 ] } },
    { "type": "Feature", "properties": { "Name": "Bearing Technology", "description": null }, "geometry": { "type": "Point", "coordinates": [ -81.997662, 41.4719399 ] } },
    { "type": "Feature", "properties": { "Name": "L & w Inc", "description": null }, "geometry": { "type": "Point", "coordinates": [ -82.002215, 41.4719989 ] } },
    { "type": "Feature", "properties": { "Name": "The Avon Pet Lodge", "description": null }, "geometry": { "type": "Point", "coordinates": [ -81.9987831, 41.4728933 ] } },
    { "type": "Feature", "properties": { "Name": "Kim's Martial Arts", "description": null }, "geometry": { "type": "Point", "coordinates": [ -82.0002775, 41.4728191 ] } },
    { "type": "Feature", "properties": { "Name": "North Coast Bearings Inc", "description": null }, "geometry": { "type": "Point", "coordinates": [ -82.0006253, 41.4735991 ] } },
    { "type": "Feature", "properties": { "Name": "Indy Equipment & Supply LLC", "description": null }, "geometry": { "type": "Point", "coordinates": [ -81.997557, 41.475024 ] } },
    { "type": "Feature", "properties": { "Name": "RDT Concepts", "description": null }, "geometry": { "type": "Point", "coordinates": [ -81.999323, 41.474011 ] } },
    { "type": "Feature", "properties": { "Name": "Flavorseal", "description": null }, "geometry": { "type": "Point", "coordinates": [ -82.003236, 41.4750445 ] } },
    { "type": "Feature", "properties": { "Name": "Playground World", "description": null }, "geometry": { "type": "Point", "coordinates": [ -81.9997632, 41.4751553 ] } },
    { "type": "Feature", "properties": { "Name": "Custom Culinary", "description": null }, "geometry": { "type": "Point", "coordinates": [ -82.0062253, 41.4762619 ] } },
    { "type": "Feature", "properties": { "Name": "Cutting Dynamics â Aerospace Manufacturing", "description": null }, "geometry": { "type": "Point", "coordinates": [ -82.0004987, 41.4765589 ] } },
    { "type": "Feature", "properties": { "Name": "Wonder Machine", "description": null }, "geometry": { "type": "Point", "coordinates": [ -82.0064962, 41.4773471 ] } },
    { "type": "Feature", "properties": { "Name": "Advanced Polymer Coatings", "description": null }, "geometry": { "type": "Point", "coordinates": [ -81.9984815, 41.4776175 ] } },
    { "type": "Feature", "properties": { "Name": "The Rock Pile", "description": null }, "geometry": { "type": "Point", "coordinates": [ -81.9894338, 41.4776426 ] } },
    { "type": "Feature", "properties": { "Name": "Legacy Restaurant & Grille", "description": null }, "geometry": { "type": "Point", "coordinates": [ -81.998864, 41.479595 ] } },
    { "type": "Feature", "properties": { "Name": "Coleman Gardens, LLC", "description": null }, "geometry": { "type": "Point", "coordinates": [ -81.9881085, 41.4788606 ] } },
    { "type": "Feature", "properties": { "Name": "Bostwick-Braun Co", "description": null }, "geometry": { "type": "Point", "coordinates": [ -81.9992949, 41.4742964 ] } },
    { "type": "Feature", "properties": { "Name": "Flippers Gym Program", "description": null }, "geometry": { "type": "Point", "coordinates": [ -81.9999166, 41.4753197 ] } },
    { "type": "Feature", "properties": { "Name": "Fit Me Up (FMU) Fitness", "description": null }, "geometry": { "type": "Point", "coordinates": [ -81.9999283, 41.4750173 ] } },
    { "type": "Feature", "properties": { "Name": "McClain & Belardo, LLC", "description": null }, "geometry": { "type": "Point", "coordinates": [ -81.9992032, 41.4755127 ] } },
    { "type": "Feature", "properties": { "Name": "Cabela's", "description": null }, "geometry": { "type": "Point", "coordinates": [ -82.0131682, 41.4654396 ] } },
    { "type": "Feature", "properties": { "Name": "Best Buy", "description": null }, "geometry": { "type": "Point", "coordinates": [ -82.0205523, 41.4658809 ] } },
    { "type": "Feature", "properties": { "Name": "Walmart Supercenter", "description": null }, "geometry": { "type": "Point", "coordinates": [ -82.0165953, 41.4662523 ] } },
    { "type": "Feature", "properties": { "Name": "Dunkin'", "description": null }, "geometry": { "type": "Point", "coordinates": [ -82.0210401, 41.4665647 ] } },
    { "type": "Feature", "properties": { "Name": "Istanbul Mediterranean Grill", "description": null }, "geometry": { "type": "Point", "coordinates": [ -82.0162128, 41.4682828 ] } },
    { "type": "Feature", "properties": { "Name": "Petco", "description": null }, "geometry": { "type": "Point", "coordinates": [ -82.0178088, 41.4682195 ] } },
    { "type": "Feature", "properties": { "Name": "Lowe's Home Improvement", "description": null }, "geometry": { "type": "Point", "coordinates": [ -82.0172256, 41.4693657 ] } },
    { "type": "Feature", "properties": { "Name": "Arby's", "description": null }, "geometry": { "type": "Point", "coordinates": [ -82.019034, 41.470374 ] } },
    { "type": "Feature", "properties": { "Name": "JCPenney", "description": null }, "geometry": { "type": "Point", "coordinates": [ -82.01667, 41.47086 ] } },
    { "type": "Feature", "properties": { "Name": "Chemtron Corporation", "description": null }, "geometry": { "type": "Point", "coordinates": [ -82.0167259, 41.4718251 ] } },
    { "type": "Feature", "properties": { "Name": "Automotive Specialty Services", "description": null }, "geometry": { "type": "Point", "coordinates": [ -82.0187582, 41.4746486 ] } },
    { "type": "Feature", "properties": { "Name": "Kiddie Kollege-Avon Pre-School", "description": null }, "geometry": { "type": "Point", "coordinates": [ -82.0187329, 41.4760173 ] } },
    { "type": "Feature", "properties": { "Name": "Goodwill", "description": null }, "geometry": { "type": "Point", "coordinates": [ -82.0187878, 41.4776414 ] } },
    { "type": "Feature", "properties": { "Name": "Professional Driving School", "description": null }, "geometry": { "type": "Point", "coordinates": [ -82.0187303, 41.4793163 ] } },
    { "type": "Feature", "properties": { "Name": "Parker-Hannifin Aircraft Wheel", "description": null }, "geometry": { "type": "Point", "coordinates": [ -82.0198951, 41.4738312 ] } },
    { "type": "Feature", "properties": { "Name": "Railroad Brewing Company", "description": null }, "geometry": { "type": "Point", "coordinates": [ -82.0202411, 41.4752105 ] } },
    { "type": "Feature", "properties": { "Name": "U-Haul Neighborhood Dealer", "description": null }, "geometry": { "type": "Point", "coordinates": [ -82.0213005, 41.4756486 ] } },
    { "type": "Feature", "properties": { "Name": "Superlube Complete Car Care Center", "description": null }, "geometry": { "type": "Point", "coordinates": [ -82.019787, 41.4766837 ] } },
    { "type": "Feature", "properties": { "Name": "Bubba's-Q", "description": null }, "geometry": { "type": "Point", "coordinates": [ -82.020051, 41.478164 ] } },
    { "type": "Feature", "properties": { "Name": "Avon Lake City Building Department", "description": null }, "geometry": { "type": "Point", "coordinates": [ -82.0206187, 41.4792057 ] } },
    { "type": "Feature", "properties": { "Name": "Kelsey Elizabeth Cakes", "description": null }, "geometry": { "type": "Point", "coordinates": [ -82.01988, 41.4810382 ] } },
    { "type": "Feature", "properties": { "Name": "Ahern's Banquet Center", "description": null }, "geometry": { "type": "Point", "coordinates": [ -82.0213268, 41.4813988 ] } },
    { "type": "Feature", "properties": { "Name": "Grand River Navigation Co", "description": null }, "geometry": { "type": "Point", "coordinates": [ -82.023037, 41.48193 ] } },
    { "type": "Feature", "properties": { "Name": "Salad Kraze", "description": null }, "geometry": { "type": "Point", "coordinates": [ -82.0199072, 41.4826824 ] } },
    { "type": "Feature", "properties": { "Name": "Ohio Bureau of Motor Vehicles, Avon Lake Deputy Registrar License Agency", "description": null }, "geometry": { "type": "Point", "coordinates": [ -82.019773, 41.4833473 ] } },
    { "type": "Feature", "properties": { "Name": "Sweetbriar Golf & Pro Shop", "description": null }, "geometry": { "type": "Point", "coordinates": [ -82.0012849, 41.4802005 ] } },
    { "type": "Feature", "properties": { "Name": "Autobahn Extremist", "description": null }, "geometry": { "type": "Point", "coordinates": [ -82.02842, 41.481639 ] } },
    { "type": "Feature", "properties": { "Name": "Thogus Products", "description": null }, "geometry": { "type": "Point", "coordinates": [ -82.036457, 41.482636 ] } },
    { "type": "Feature", "properties": { "Name": "Avon Lake ATA Karate For Kids", "description": null }, "geometry": { "type": "Point", "coordinates": [ -82.0385583, 41.4821027 ] } },
    { "type": "Feature", "properties": { "Name": "Hinkley Lighting", "description": null }, "geometry": { "type": "Point", "coordinates": [ -82.0295106, 41.4848838 ] } },
    { "type": "Feature", "properties": { "Name": "Redwood Avon Lake", "description": null }, "geometry": { "type": "Point", "coordinates": [ -82.028433, 41.487713 ] } },
    { "type": "Feature", "properties": { "Name": "Hampshire Highlands", "description": null }, "geometry": { "type": "Point", "coordinates": [ -82.0300841, 41.4871308 ] } },
    { "type": "Feature", "properties": { "Name": "Huntington Bank", "description": null }, "geometry": { "type": "Point", "coordinates": [ -82.0196394, 41.4912136 ] } },
    { "type": "Feature", "properties": { "Name": "Klingshirn Winery", "description": null }, "geometry": { "type": "Point", "coordinates": [ -82.031783, 41.489136 ] } },
    { "type": "Feature", "properties": { "Name": "Avon Lake Municipal Court Clrk", "description": null }, "geometry": { "type": "Point", "coordinates": [ -82.021791, 41.491731 ] } },
    { "type": "Feature", "properties": { "Name": "Erie Business Machines Inc.", "description": null }, "geometry": { "type": "Point", "coordinates": [ -82.034711, 41.492523 ] } },
    { "type": "Feature", "properties": { "Name": "Taco Bell", "description": null }, "geometry": { "type": "Point", "coordinates": [ -82.0194866, 41.4919299 ] } },
    { "type": "Feature", "properties": { "Name": "McDonald's", "description": null }, "geometry": { "type": "Point", "coordinates": [ -82.0201537, 41.4925951 ] } },
    { "type": "Feature", "properties": { "Name": "Speedway", "description": null }, "geometry": { "type": "Point", "coordinates": [ -82.01932, 41.4928026 ] } },
    { "type": "Feature", "properties": { "Name": "Buffalo Wild Wings", "description": null }, "geometry": { "type": "Point", "coordinates": [ -82.0227027, 41.4936839 ] } },
    { "type": "Feature", "properties": { "Name": "Walgreens", "description": null }, "geometry": { "type": "Point", "coordinates": [ -82.0206245, 41.493685 ] } },
    { "type": "Feature", "properties": { "Name": "CafÃ© Melissa", "description": null }, "geometry": { "type": "Point", "coordinates": [ -82.023368, 41.493665 ] } },
    { "type": "Feature", "properties": { "Name": "Las Cazueles Mexican Restaurant", "description": null }, "geometry": { "type": "Point", "coordinates": [ -82.0175296, 41.493877 ] } },
    { "type": "Feature", "properties": { "Name": "Marco's Pizza", "description": null }, "geometry": { "type": "Point", "coordinates": [ -82.0167865, 41.4937717 ] } },
    { "type": "Feature", "properties": { "Name": "Parker's Grille & Tavern", "description": null }, "geometry": { "type": "Point", "coordinates": [ -82.0223231, 41.4950636 ] } },
    { "type": "Feature", "properties": { "Name": "Sprenger Health Care Towne Center Community Campus", "description": null }, "geometry": { "type": "Point", "coordinates": [ -82.0247915, 41.4952603 ] } },
    { "type": "Feature", "properties": { "Name": "Performance Air Balancing", "description": null }, "geometry": { "type": "Point", "coordinates": [ -82.033368, 41.49523 ] } },
    { "type": "Feature", "properties": { "Name": "Elite Nails", "description": null }, "geometry": { "type": "Point", "coordinates": [ -82.0201351, 41.4954566 ] } },
    { "type": "Feature", "properties": { "Name": "Romeo's Pizza", "description": null }, "geometry": { "type": "Point", "coordinates": [ -82.0189415, 41.4952513 ] } },
    { "type": "Feature", "properties": { "Name": "Main Street Care Center", "description": null }, "geometry": { "type": "Point", "coordinates": [ -82.021202, 41.496252 ] } },
    { "type": "Feature", "properties": { "Name": "Thai Chili", "description": null }, "geometry": { "type": "Point", "coordinates": [ -82.017107, 41.493609 ] } },
    { "type": "Feature", "properties": { "Name": "Monro Auto Service And Tire Centers", "description": null }, "geometry": { "type": "Point", "coordinates": [ -82.0177568, 41.4926534 ] } },
    { "type": "Feature", "properties": { "Name": "BP", "description": null }, "geometry": { "type": "Point", "coordinates": [ -82.018567, 41.492882 ] } },
    { "type": "Feature", "properties": { "Name": "Take 5 Oil Change", "description": null }, "geometry": { "type": "Point", "coordinates": [ -82.0184714, 41.4924116 ] } },
    { "type": "Feature", "properties": { "Name": "A Serenity NOW Massage Z Spa LLC", "description": null }, "geometry": { "type": "Point", "coordinates": [ -82.0184173, 41.4917805 ] } },
    { "type": "Feature", "properties": { "Name": "Landings Animal Hospital", "description": null }, "geometry": { "type": "Point", "coordinates": [ -82.019885, 41.4915829 ] } },
    { "type": "Feature", "properties": { "Name": "Mark PI's China Gate", "description": null }, "geometry": { "type": "Point", "coordinates": [ -82.0178291, 41.4936939 ] } },
    { "type": "Feature", "properties": { "Name": "Redbox", "description": null }, "geometry": { "type": "Point", "coordinates": [ -82.020227, 41.493696 ] } },
    { "type": "Feature", "properties": { "Name": "The Next Generation Child Development Center", "description": null }, "geometry": { "type": "Point", "coordinates": [ -82.017089, 41.494207 ] } },
    { "type": "Feature", "properties": { "Name": "Floors & More", "description": null }, "geometry": { "type": "Point", "coordinates": [ -82.022853, 41.493214 ] } },
    { "type": "Feature", "properties": { "Name": "Neon Beach Tan", "description": null }, "geometry": { "type": "Point", "coordinates": [ -82.0235499, 41.4932179 ] } },
    { "type": "Feature", "properties": { "Name": "WarHost Games", "description": null }, "geometry": { "type": "Point", "coordinates": [ -82.0217688, 41.4950776 ] } },
    { "type": "Feature", "properties": { "Name": "Northwest Bank", "description": null }, "geometry": { "type": "Point", "coordinates": [ -82.024695, 41.493677 ] } },
    { "type": "Feature", "properties": { "Name": "Towne Center Main Street Care", "description": null }, "geometry": { "type": "Point", "coordinates": [ -82.023374, 41.4966951 ] } },
    { "type": "Feature", "properties": { "Name": "Church on the North Coast - Avon Lake", "description": null }, "geometry": { "type": "Point", "coordinates": [ -82.0194691, 41.4974135 ] } },
    { "type": "Feature", "properties": { "Name": "Burger King", "description": null }, "geometry": { "type": "Point", "coordinates": [ -82.0183555, 41.49216 ] } },
    { "type": "Feature", "properties": { "Name": "Sherwin-Williams Paint Store", "description": null }, "geometry": { "type": "Point", "coordinates": [ -82.0206977, 41.4927383 ] } },
    { "type": "Feature", "properties": { "Name": "NCIT, INC Home Automation \/ Theater", "description": null }, "geometry": { "type": "Point", "coordinates": [ -82.018657, 41.493543 ] } },
    { "type": "Feature", "properties": { "Name": "First Federal Lakewood - Avon Lake", "description": null }, "geometry": { "type": "Point", "coordinates": [ -82.021674, 41.4935324 ] } },
    { "type": "Feature", "properties": { "Name": "Just One More Sports Bar And Grille", "description": null }, "geometry": { "type": "Point", "coordinates": [ -82.0180654, 41.4939614 ] } },
    { "type": "Feature", "properties": { "Name": "Rowland Joy DPM", "description": null }, "geometry": { "type": "Point", "coordinates": [ -82.0194571, 41.49403 ] } },
    { "type": "Feature", "properties": { "Name": "Jan Jewelers \"Sensational Jewelry - Beautifully Priced\"", "description": null }, "geometry": { "type": "Point", "coordinates": [ -82.0181241, 41.4942376 ] } },
    { "type": "Feature", "properties": { "Name": "Avon Lake Towne Center", "description": null }, "geometry": { "type": "Point", "coordinates": [ -82.0191839, 41.4942709 ] } },
    { "type": "Feature", "properties": { "Name": "VIP Property Management Co", "description": null }, "geometry": { "type": "Point", "coordinates": [ -82.0194099, 41.495539 ] } },
    { "type": "Feature", "properties": { "Name": "Lifted Lifestyle Apparel", "description": null }, "geometry": { "type": "Point", "coordinates": [ -82.0211554, 41.4953035 ] } },
    { "type": "Feature", "properties": { "Name": "Burn Boot Camp Avon Lake", "description": null }, "geometry": { "type": "Point", "coordinates": [ -82.0202738, 41.4951137 ] } },
    { "type": "Feature", "properties": { "Name": "Conrad's Tire Express & Total Car Care", "description": null }, "geometry": { "type": "Point", "coordinates": [ -82.023939, 41.493666 ] } },
    { "type": "Feature", "properties": { "Name": "Sprenger Retirement Center", "description": null }, "geometry": { "type": "Point", "coordinates": [ -82.0240541, 41.4954427 ] } },
    { "type": "Feature", "properties": { "Name": "Peter & Co Jewelers", "description": null }, "geometry": { "type": "Point", "coordinates": [ -81.987988, 41.493386 ] } },
    { "type": "Feature", "properties": { "Name": "Giant Eagle Supermarket", "description": null }, "geometry": { "type": "Point", "coordinates": [ -81.9857766, 41.4936646 ] } },
    { "type": "Feature", "properties": { "Name": "Fifth Third Bank & ATM", "description": null }, "geometry": { "type": "Point", "coordinates": [ -81.9878886, 41.4940667 ] } },
    { "type": "Feature", "properties": { "Name": "KeyBank", "description": null }, "geometry": { "type": "Point", "coordinates": [ -81.9872656, 41.4933614 ] } },
    { "type": "Feature", "properties": { "Name": "Learwood Square Shopping Center", "description": null }, "geometry": { "type": "Point", "coordinates": [ -81.9864192, 41.4942892 ] } },
    { "type": "Feature", "properties": { "Name": "Best Cuts", "description": null }, "geometry": { "type": "Point", "coordinates": [ -81.985868, 41.493987 ] } },
    { "type": "Feature", "properties": { "Name": "Holy Spirit Parish", "description": null }, "geometry": { "type": "Point", "coordinates": [ -81.9894942, 41.494133 ] } },
    { "type": "Feature", "properties": { "Name": "CVS", "description": null }, "geometry": { "type": "Point", "coordinates": [ -81.9859635, 41.4944858 ] } },
    { "type": "Feature", "properties": { "Name": "Verizon Authorized Retailer â TCC", "description": null }, "geometry": { "type": "Point", "coordinates": [ -81.9860798, 41.4943308 ] } },
    { "type": "Feature", "properties": { "Name": "Avon Lake KinderCare", "description": null }, "geometry": { "type": "Point", "coordinates": [ -81.987484, 41.4943684 ] } },
    { "type": "Feature", "properties": { "Name": "Coinstar", "description": null }, "geometry": { "type": "Point", "coordinates": [ -81.986, 41.493507 ] } },
    { "type": "Feature", "properties": { "Name": "Starbucks", "description": null }, "geometry": { "type": "Point", "coordinates": [ -81.9861384, 41.4933111 ] } },
    { "type": "Feature", "properties": { "Name": "American Legion", "description": null }, "geometry": { "type": "Point", "coordinates": [ -81.9846517, 41.4934909 ] } },
    { "type": "Feature", "properties": { "Name": "Giant Eagle Deli", "description": null }, "geometry": { "type": "Point", "coordinates": [ -81.9860155, 41.4937787 ] } },
    { "type": "Feature", "properties": { "Name": "Maximum Accessible Housing - Meadow Vistas", "description": null }, "geometry": { "type": "Point", "coordinates": [ -81.9853113, 41.4949543 ] } },
    { "type": "Feature", "properties": { "Name": "Subway", "description": null }, "geometry": { "type": "Point", "coordinates": [ -81.9860614, 41.4949885 ] } },
    { "type": "Feature", "properties": { "Name": "China King 1 Restaurant", "description": null }, "geometry": { "type": "Point", "coordinates": [ -81.9860582, 41.4948442 ] } },
    { "type": "Feature", "properties": { "Name": "Ron Zehel Guitar Center", "description": null }, "geometry": { "type": "Point", "coordinates": [ -81.9862076, 41.4946109 ] } },
    { "type": "Feature", "properties": { "Name": "E&H Ace Hardware", "description": null }, "geometry": { "type": "Point", "coordinates": [ -81.9860676, 41.495347 ] } },
    { "type": "Feature", "properties": { "Name": "Pizza Hut", "description": null }, "geometry": { "type": "Point", "coordinates": [ -81.9876918, 41.4953956 ] } },
    { "type": "Feature", "properties": { "Name": "The UPS Store", "description": null }, "geometry": { "type": "Point", "coordinates": [ -81.987714, 41.4952349 ] } },
    { "type": "Feature", "properties": { "Name": "Christina Estes - State Farm Insurance Agent", "description": null }, "geometry": { "type": "Point", "coordinates": [ -81.987249, 41.4950963 ] } },
    { "type": "Feature", "properties": { "Name": "Mare Athletic + Swim Wear", "description": null }, "geometry": { "type": "Point", "coordinates": [ -81.9878007, 41.496213 ] } },
    { "type": "Feature", "properties": { "Name": "Independence Village Avon Lake", "description": null }, "geometry": { "type": "Point", "coordinates": [ -81.9871599, 41.4973376 ] } },
    { "type": "Feature", "properties": { "Name": "Church of the Open Door Avon Lake Campus", "description": null }, "geometry": { "type": "Point", "coordinates": [ -81.9878673, 41.4986266 ] } },